{
 "cities": {
  "шебекино|белгородская область": {
   "name": "Шебекино",
   "region": "Белгородская область",
   "bpla": true,
   "bplaDim": true,
   "uab": false,
   "uabDim": false,
   "fpv": false,
   "rocket": false,
   "rocket_level": false,
   "aviation": false,
   "pvo": false,
   "lat": 50.41342,
   "lon": 36.92537
  },
  "белокуракино|луганская народная республика": {
   "name": "Белокуракино",
   "region": "Луганская Народная Республика",
   "bpla": true,
   "bplaDim": false,
   "uab": false,
   "uabDim": false,
   "fpv": false,
   "rocket": false,
   "rocket_level": false,
   "aviation": false,
   "pvo": false,
   "lat": 49.53458,
   "lon": 38.72723
  },
  "сочи|краснодарский край": {
   "name": "Сочи",
   "region": "Краснодарский край",
   "bpla": true,
   "bplaDim": true,
   "uab": false,
   "uabDim": false,
   "fpv": false,
   "rocket": false,
   "rocket_level": false,
   "aviation": false,
   "pvo": false,
   "lat": 43.59699,
   "lon": 39.72477
  },
  "марковка|луганская народная республика": {
   "name": "Марковка",
   "region": "Луганская Народная Республика",
   "bpla": true,
   "bplaDim": true,
   "uab": false,
   "uabDim": false,
   "fpv": false,
   "rocket": false,
   "rocket_level": false,
   "aviation": false,
   "pvo": false,
   "lat": 49.52285,
   "lon": 39.57069
  },
  "о одинцово|московская область": {
   "name": "О Одинцово",
   "region": "Московская область",
   "bpla": true,
   "bplaDim": false,
   "uab": false,
   "uabDim": false,
   "fpv": false,
   "rocket": false,
   "rocket_level": false,
   "aviation": false,
   "pvo": true,
   "lat": 55.6785359,
   "lon": 37.2679429
  },
  "мелитополь|запорожская область": {
   "name": "Мелитополь",
   "region": "Запорожская область",
   "bpla": true,
   "bplaDim": false,
   "uab": false,
   "uabDim": false,
   "fpv": false,
   "rocket": false,
   "rocket_level": false,
   "aviation": false,
   "pvo": false,
   "lat": 46.84735,
   "lon": 35.38196
  },
  "донецк|донецкая народная республика": {
   "name": "Донецк",
   "region": "Донецкая Народная Республика",
   "bpla": true,
   "bplaDim": true,
   "uab": false,
   "uabDim": false,
   "fpv": false,
   "rocket": false,
   "rocket_level": false,
   "aviation": false,
   "pvo": false,
   "lat": 48.023,
   "lon": 37.80224
  },
  "белицкое|донецкая народная республика": {
   "name": "Белицкое",
   "region": "Донецкая Народная Республика",
   "bpla": false,
   "bplaDim": false,
   "uab": true,
   "uabDim": true,
   "fpv": false,
   "rocket": false,
   "rocket_level": false,
   "aviation": false,
   "pvo": false,
   "lat": 48.40642,
   "lon": 37.18111
  },
  "железногорск|курская область": {
   "name": "Железногорск",
   "region": "Курская область",
   "bpla": true,
   "bplaDim": true,
   "uab": false,
   "uabDim": false,
   "fpv": false,
   "rocket": false,
   "rocket_level": false,
   "aviation": false,
   "pvo": false,
   "lat": 52.34198,
   "lon": 35.35917
  },
  "приазовское|запорожская область": {
   "name": "Приазовское",
   "region": "Запорожская область",
   "bpla": true,
   "bplaDim": true,
   "uab": false,
   "uabDim": false,
   "fpv": false,
   "rocket": false,
   "rocket_level": false,
   "aviation": false,
   "pvo": false,
   "lat": 46.73123,
   "lon": 35.64082
  },
  "родинское|донецкая народная республика": {
   "name": "Родинское",
   "region": "Донецкая Народная Республика",
   "bpla": false,
   "bplaDim": false,
   "uab": true,
   "uabDim": true,
   "fpv": false,
   "rocket": false,
   "rocket_level": false,
   "aviation": false,
   "pvo": false,
   "lat": 48.35415,
   "lon": 37.20641
  },
  "токмак|запорожская область": {
   "name": "Токмак",
   "region": "Запорожская область",
   "bpla": true,
   "bplaDim": false,
   "uab": false,
   "uabDim": false,
   "fpv": false,
   "rocket": false,
   "rocket_level": false,
   "aviation": false,
   "pvo": false,
   "lat": 47.25554,
   "lon": 35.70836
  },
  "белгород|белгородская область": {
   "name": "Белгород",
   "region": "Белгородская область",
   "bpla": true,
   "bplaDim": true,
   "uab": false,
   "uabDim": false,
   "fpv": false,
   "rocket": false,
   "rocket_level": false,
   "aviation": false,
   "pvo": false,
   "lat": 50.5955595,
   "lon": 36.5873394
  },
  "республика крым|автономная республика крым": {
   "name": "Республика Крым",
   "region": "Автономная Республика Крым",
   "bpla": true,
   "bplaDim": true,
   "uab": false,
   "uabDim": false,
   "fpv": false,
   "rocket": false,
   "rocket_level": false,
   "aviation": false,
   "pvo": false,
   "lat": 44.948237,
   "lon": 34.100318
  },
  "горловка|донецкая народная республика": {
   "name": "Горловка",
   "region": "Донецкая Народная Республика",
   "bpla": true,
   "bplaDim": false,
   "uab": false,
   "uabDim": false,
   "fpv": false,
   "rocket": false,
   "rocket_level": false,
   "aviation": false,
   "pvo": false,
   "lat": 48.29986,
   "lon": 38.01709
  },
  "о домодедово|московская область": {
   "name": "О Домодедово",
   "region": "Московская область",
   "bpla": true,
   "bplaDim": false,
   "uab": false,
   "uabDim": false,
   "fpv": false,
   "rocket": false,
   "rocket_level": false,
   "aviation": false,
   "pvo": true,
   "lat": 55.4546771,
   "lon": 37.7647
  },
  "никольское|донецкая народная республика": {
   "name": "Никольское",
   "region": "Донецкая Народная Республика",
   "bpla": true,
   "bplaDim": true,
   "uab": false,
   "uabDim": false,
   "fpv": false,
   "rocket": false,
   "rocket_level": false,
   "aviation": false,
   "pvo": false,
   "lat": 47.20533,
   "lon": 37.32139
  },
  "макеевка|донецкая народная республика": {
   "name": "Макеевка",
   "region": "Донецкая Народная Республика",
   "bpla": true,
   "bplaDim": true,
   "uab": false,
   "uabDim": false,
   "fpv": false,
   "rocket": false,
   "rocket_level": false,
   "aviation": false,
   "pvo": false,
   "lat": 48.04782,
   "lon": 37.92576
  }
 },
 "timestamp": 1783516236.756015,
 "fetched_at": "2026-07-08T13:10:36Z"
}