{
 "cities": {
  "керченский полуостров|автономная республика крым": {
   "name": "Керченский полуостров",
   "region": "Автономная Республика Крым",
   "bpla": true,
   "bplaDim": false,
   "uab": false,
   "uabDim": false,
   "fpv": false,
   "rocket": false,
   "rocket_level": false,
   "aviation": false,
   "pvo": false,
   "lat": 45.250954,
   "lon": 36.140668
  },
  "выгоничи|брянская область": {
   "name": "Выгоничи",
   "region": "Брянская область",
   "bpla": true,
   "bplaDim": true,
   "uab": false,
   "uabDim": false,
   "fpv": false,
   "rocket": false,
   "rocket_level": false,
   "aviation": false,
   "pvo": false,
   "lat": 53.09978,
   "lon": 34.06741
  },
  "алексин|тульская область": {
   "name": "Алексин",
   "region": "Тульская область",
   "bpla": true,
   "bplaDim": false,
   "uab": false,
   "uabDim": false,
   "fpv": false,
   "rocket": false,
   "rocket_level": false,
   "aviation": false,
   "pvo": false,
   "lat": 54.50484,
   "lon": 37.06697
  },
  "горловка|донецкая народная республика": {
   "name": "Горловка",
   "region": "Донецкая Народная Республика",
   "bpla": true,
   "bplaDim": false,
   "uab": false,
   "uabDim": false,
   "fpv": false,
   "rocket": false,
   "rocket_level": false,
   "aviation": false,
   "pvo": false,
   "lat": 48.29986,
   "lon": 38.01709
  },
  "октябрьский|волгоградская область": {
   "name": "Октябрьский",
   "region": "Волгоградская область",
   "bpla": true,
   "bplaDim": true,
   "uab": false,
   "uabDim": false,
   "fpv": false,
   "rocket": false,
   "rocket_level": false,
   "aviation": false,
   "pvo": false,
   "lat": 48.0349004,
   "lon": 43.8080962
  },
  "раменское|московская область": {
   "name": "Раменское",
   "region": "Московская область",
   "bpla": true,
   "bplaDim": false,
   "uab": false,
   "uabDim": false,
   "fpv": false,
   "rocket": false,
   "rocket_level": false,
   "aviation": false,
   "pvo": true,
   "lat": 55.56341,
   "lon": 38.24152
  },
  "щекино|тульская область": {
   "name": "Щекино",
   "region": "Тульская область",
   "bpla": true,
   "bplaDim": false,
   "uab": false,
   "uabDim": false,
   "fpv": false,
   "rocket": false,
   "rocket_level": false,
   "aviation": false,
   "pvo": false,
   "lat": 54.00734,
   "lon": 37.50647
  },
  "бердянск|запорожская область": {
   "name": "Бердянск",
   "region": "Запорожская область",
   "bpla": true,
   "bplaDim": false,
   "uab": false,
   "uabDim": false,
   "fpv": false,
   "rocket": false,
   "rocket_level": false,
   "aviation": false,
   "pvo": false,
   "lat": 46.75578,
   "lon": 36.78815
  },
  "приморск|запорожская область": {
   "name": "Приморск",
   "region": "Запорожская область",
   "bpla": true,
   "bplaDim": true,
   "uab": false,
   "uabDim": false,
   "fpv": false,
   "rocket": false,
   "rocket_level": false,
   "aviation": false,
   "pvo": false,
   "lat": 46.73415,
   "lon": 36.34599
  },
  "трасса|брянская область": {
   "name": "трасса",
   "region": "Брянская область",
   "bpla": true,
   "bplaDim": true,
   "uab": false,
   "uabDim": false,
   "fpv": false,
   "rocket": false,
   "rocket_level": false,
   "aviation": false,
   "pvo": false,
   "lat": 53.395264,
   "lon": 34.3207189
  },
  "симферополь|автономная республика крым": {
   "name": "Симферополь",
   "region": "Автономная Республика Крым",
   "bpla": true,
   "bplaDim": false,
   "uab": false,
   "uabDim": false,
   "fpv": false,
   "rocket": false,
   "rocket_level": false,
   "aviation": false,
   "pvo": false,
   "lat": 44.95719,
   "lon": 34.11079
  },
  "новоалексеевка|херсонская область": {
   "name": "Новоалексеевка",
   "region": "Херсонская область",
   "bpla": true,
   "bplaDim": true,
   "uab": false,
   "uabDim": false,
   "fpv": false,
   "rocket": false,
   "rocket_level": false,
   "aviation": false,
   "pvo": false,
   "lat": 46.22995,
   "lon": 34.64576
  },
  "джанкой|автономная республика крым": {
   "name": "Джанкой",
   "region": "Автономная Республика Крым",
   "bpla": true,
   "bplaDim": true,
   "uab": false,
   "uabDim": false,
   "fpv": false,
   "rocket": false,
   "rocket_level": false,
   "aviation": false,
   "pvo": false,
   "lat": 45.713348,
   "lon": 34.392872
  },
  "дальний|белгородская область": {
   "name": "Дальний",
   "region": "Белгородская область",
   "bpla": true,
   "bplaDim": true,
   "uab": false,
   "uabDim": false,
   "fpv": false,
   "rocket": false,
   "rocket_level": false,
   "aviation": false,
   "pvo": false,
   "lat": 49.9478802,
   "lon": 38.1079265
  },
  "рыльск|курская область": {
   "name": "Рыльск",
   "region": "Курская область",
   "bpla": true,
   "bplaDim": true,
   "uab": false,
   "uabDim": false,
   "fpv": false,
   "rocket": false,
   "rocket_level": false,
   "aviation": false,
   "pvo": false,
   "lat": 51.570538,
   "lon": 34.683506
  },
  "шебекино|белгородская область": {
   "name": "Шебекино",
   "region": "Белгородская область",
   "bpla": true,
   "bplaDim": true,
   "uab": false,
   "uabDim": false,
   "fpv": false,
   "rocket": false,
   "rocket_level": false,
   "aviation": false,
   "pvo": false,
   "lat": 50.41342,
   "lon": 36.92537
  },
  "красноармейск|донецкая народная республика": {
   "name": "Красноармейск",
   "region": "Донецкая Народная Республика",
   "bpla": false,
   "bplaDim": false,
   "uab": true,
   "uabDim": true,
   "fpv": false,
   "rocket": false,
   "rocket_level": false,
   "aviation": false,
   "pvo": false,
   "lat": 48.280351,
   "lon": 37.175601
  },
  "белгород|белгородская область": {
   "name": "Белгород",
   "region": "Белгородская область",
   "bpla": true,
   "bplaDim": true,
   "uab": false,
   "uabDim": false,
   "fpv": false,
   "rocket": true,
   "rocket_level": true,
   "aviation": false,
   "pvo": false,
   "lat": 50.5955595,
   "lon": 36.5873394
  },
  "рохманово|брянская область": {
   "name": "Рохманово",
   "region": "Брянская область",
   "bpla": true,
   "bplaDim": true,
   "uab": false,
   "uabDim": false,
   "fpv": false,
   "rocket": false,
   "rocket_level": false,
   "aviation": false,
   "pvo": false,
   "lat": 52.7501468,
   "lon": 32.8823703
  },
  "сураж|брянская область": {
   "name": "Сураж",
   "region": "Брянская область",
   "bpla": true,
   "bplaDim": true,
   "uab": false,
   "uabDim": false,
   "fpv": false,
   "rocket": false,
   "rocket_level": false,
   "aviation": false,
   "pvo": false,
   "lat": 53.01747,
   "lon": 32.39178
  },
  "калуга|калужская область": {
   "name": "Калуга",
   "region": "Калужская область",
   "bpla": true,
   "bplaDim": false,
   "uab": false,
   "uabDim": false,
   "fpv": false,
   "rocket": false,
   "rocket_level": false,
   "aviation": false,
   "pvo": false,
   "lat": 54.53063,
   "lon": 36.27
  },
  "о кашира|московская область": {
   "name": "О Кашира",
   "region": "Московская область",
   "bpla": true,
   "bplaDim": false,
   "uab": false,
   "uabDim": false,
   "fpv": false,
   "rocket": false,
   "rocket_level": false,
   "aviation": false,
   "pvo": false,
   "lat": 54.8961715,
   "lon": 38.0740681
  },
  "тульская область|московская область": {
   "name": "Тульская область",
   "region": "Московская область",
   "bpla": true,
   "bplaDim": true,
   "uab": false,
   "uabDim": false,
   "fpv": false,
   "rocket": false,
   "rocket_level": false,
   "aviation": false,
   "pvo": false,
   "lat": 55.9762394,
   "lon": 37.4982735
  },
  "клинцы|брянская область": {
   "name": "Клинцы",
   "region": "Брянская область",
   "bpla": true,
   "bplaDim": true,
   "uab": false,
   "uabDim": false,
   "fpv": false,
   "rocket": false,
   "rocket_level": false,
   "aviation": false,
   "pvo": false,
   "lat": 52.76033,
   "lon": 32.23905
  },
  "тула|тульская область": {
   "name": "Тула",
   "region": "Тульская область",
   "bpla": true,
   "bplaDim": false,
   "uab": false,
   "uabDim": false,
   "fpv": false,
   "rocket": false,
   "rocket_level": false,
   "aviation": false,
   "pvo": false,
   "lat": 54.19609,
   "lon": 37.61822
  },
  "иловайск|донецкая народная республика": {
   "name": "Иловайск",
   "region": "Донецкая Народная Республика",
   "bpla": true,
   "bplaDim": true,
   "uab": false,
   "uabDim": false,
   "fpv": false,
   "rocket": false,
   "rocket_level": false,
   "aviation": false,
   "pvo": false,
   "lat": 47.92498,
   "lon": 38.20235
  },
  "карачев|брянская область": {
   "name": "Карачев",
   "region": "Брянская область",
   "bpla": true,
   "bplaDim": true,
   "uab": false,
   "uabDim": false,
   "fpv": false,
   "rocket": false,
   "rocket_level": false,
   "aviation": false,
   "pvo": false,
   "lat": 53.121594,
   "lon": 34.982805
  },
  "калужская область|брянская область": {
   "name": "Калужская область",
   "region": "Брянская область",
   "bpla": true,
   "bplaDim": true,
   "uab": false,
   "uabDim": false,
   "fpv": false,
   "rocket": false,
   "rocket_level": false,
   "aviation": false,
   "pvo": false,
   "lat": 53.3089062,
   "lon": 34.2752978
  },
  "погар|брянская область": {
   "name": "Погар",
   "region": "Брянская область",
   "bpla": true,
   "bplaDim": true,
   "uab": false,
   "uabDim": false,
   "fpv": false,
   "rocket": false,
   "rocket_level": false,
   "aviation": false,
   "pvo": false,
   "lat": 52.554283,
   "lon": 33.263706
  },
  "республика крым|автономная республика крым": {
   "name": "Республика Крым",
   "region": "Автономная Республика Крым",
   "bpla": true,
   "bplaDim": false,
   "uab": false,
   "uabDim": false,
   "fpv": false,
   "rocket": false,
   "rocket_level": false,
   "aviation": false,
   "pvo": false,
   "lat": 44.948237,
   "lon": 34.100318
  },
  "воскресенск|московская область": {
   "name": "Воскресенск",
   "region": "Московская область",
   "bpla": true,
   "bplaDim": false,
   "uab": false,
   "uabDim": false,
   "fpv": false,
   "rocket": false,
   "rocket_level": false,
   "aviation": false,
   "pvo": true,
   "lat": 55.313,
   "lon": 38.691
  },
  "много|ростовская область": {
   "name": "Много",
   "region": "Ростовская область",
   "bpla": true,
   "bplaDim": true,
   "uab": false,
   "uabDim": false,
   "fpv": false,
   "rocket": false,
   "rocket_level": false,
   "aviation": false,
   "pvo": false,
   "lat": 47.1379221,
   "lon": 39.7174758
  },
  "жуковка|брянская область": {
   "name": "Жуковка",
   "region": "Брянская область",
   "bpla": true,
   "bplaDim": true,
   "uab": false,
   "uabDim": false,
   "fpv": false,
   "rocket": false,
   "rocket_level": false,
   "aviation": false,
   "pvo": false,
   "lat": 53.53381,
   "lon": 33.73075
  },
  "о наро-фоминск|московская область": {
   "name": "О Наро-Фоминск",
   "region": "Московская область",
   "bpla": true,
   "bplaDim": false,
   "uab": false,
   "uabDim": false,
   "fpv": false,
   "rocket": false,
   "rocket_level": false,
   "aviation": false,
   "pvo": false,
   "lat": 55.3878383,
   "lon": 36.7355106
  },
  "людиновский район|калужская область": {
   "name": "Людиновский район",
   "region": "Калужская область",
   "bpla": true,
   "bplaDim": false,
   "uab": false,
   "uabDim": false,
   "fpv": false,
   "rocket": false,
   "rocket_level": false,
   "aviation": false,
   "pvo": false,
   "lat": 53.8631396,
   "lon": 34.4489448
  },
  "о серпухов|московская область": {
   "name": "О Серпухов",
   "region": "Московская область",
   "bpla": true,
   "bplaDim": false,
   "uab": false,
   "uabDim": false,
   "fpv": false,
   "rocket": false,
   "rocket_level": false,
   "aviation": false,
   "pvo": false,
   "lat": 54.9111787,
   "lon": 37.4241953
  },
  "гвардейское|автономная республика крым": {
   "name": "Гвардейское",
   "region": "Автономная Республика Крым",
   "bpla": true,
   "bplaDim": true,
   "uab": false,
   "uabDim": false,
   "fpv": false,
   "rocket": false,
   "rocket_level": false,
   "aviation": false,
   "pvo": false,
   "lat": 45.11692,
   "lon": 34.02188
  },
  "мелитополь|запорожская область": {
   "name": "Мелитополь",
   "region": "Запорожская область",
   "bpla": true,
   "bplaDim": false,
   "uab": false,
   "uabDim": false,
   "fpv": false,
   "rocket": false,
   "rocket_level": false,
   "aviation": false,
   "pvo": false,
   "lat": 46.84735,
   "lon": 35.38196
  },
  "серебряные пруды|московская область": {
   "name": "Серебряные пруды",
   "region": "Московская область",
   "bpla": true,
   "bplaDim": false,
   "uab": false,
   "uabDim": false,
   "fpv": false,
   "rocket": false,
   "rocket_level": false,
   "aviation": false,
   "pvo": false,
   "lat": 54.4679803,
   "lon": 38.7223679
  },
  "навля|брянская область": {
   "name": "Навля",
   "region": "Брянская область",
   "bpla": true,
   "bplaDim": true,
   "uab": false,
   "uabDim": false,
   "fpv": false,
   "rocket": false,
   "rocket_level": false,
   "aviation": false,
   "pvo": false,
   "lat": 52.82544,
   "lon": 34.4996
  },
  "брянск|брянская область": {
   "name": "Брянск",
   "region": "Брянская область",
   "bpla": true,
   "bplaDim": true,
   "uab": false,
   "uabDim": false,
   "fpv": false,
   "rocket": false,
   "rocket_level": false,
   "aviation": false,
   "pvo": false,
   "lat": 53.27096,
   "lon": 34.32143
  },
  "донецк|донецкая народная республика": {
   "name": "Донецк",
   "region": "Донецкая Народная Республика",
   "bpla": true,
   "bplaDim": true,
   "uab": false,
   "uabDim": false,
   "fpv": false,
   "rocket": false,
   "rocket_level": false,
   "aviation": false,
   "pvo": false,
   "lat": 48.023,
   "lon": 37.80224
  },
  "валуйского района|белгородская область": {
   "name": "Валуйского района",
   "region": "Белгородская область",
   "bpla": true,
   "bplaDim": true,
   "uab": false,
   "uabDim": false,
   "fpv": false,
   "rocket": false,
   "rocket_level": false,
   "aviation": false,
   "pvo": false,
   "lat": 50.211038,
   "lon": 38.0997012
  },
  "макеевка|донецкая народная республика": {
   "name": "Макеевка",
   "region": "Донецкая Народная Республика",
   "bpla": true,
   "bplaDim": true,
   "uab": false,
   "uabDim": false,
   "fpv": false,
   "rocket": false,
   "rocket_level": false,
   "aviation": false,
   "pvo": false,
   "lat": 48.04782,
   "lon": 37.92576
  },
  "великая белозерка|запорожская область": {
   "name": "Великая Белозерка",
   "region": "Запорожская область",
   "bpla": true,
   "bplaDim": true,
   "uab": false,
   "uabDim": false,
   "fpv": false,
   "rocket": false,
   "rocket_level": false,
   "aviation": false,
   "pvo": false,
   "lat": 47.27572,
   "lon": 34.68457
  },
  "о бронницы|московская область": {
   "name": "О Бронницы",
   "region": "Московская область",
   "bpla": true,
   "bplaDim": false,
   "uab": false,
   "uabDim": false,
   "fpv": false,
   "rocket": false,
   "rocket_level": false,
   "aviation": false,
   "pvo": true,
   "lat": 55.4157463,
   "lon": 38.2775252
  },
  "о подольск|московская область": {
   "name": "О Подольск",
   "region": "Московская область",
   "bpla": true,
   "bplaDim": false,
   "uab": false,
   "uabDim": false,
   "fpv": false,
   "rocket": false,
   "rocket_level": false,
   "aviation": false,
   "pvo": false,
   "lat": 55.3524887,
   "lon": 37.4439535
  },
  "заокский район|тульская область": {
   "name": "Заокский район",
   "region": "Тульская область",
   "bpla": true,
   "bplaDim": false,
   "uab": false,
   "uabDim": false,
   "fpv": false,
   "rocket": false,
   "rocket_level": false,
   "aviation": false,
   "pvo": false,
   "lat": 54.6684441,
   "lon": 37.4726552
  },
  "дмитровский район|орловская область": {
   "name": "Дмитровский район",
   "region": "Орловская область",
   "bpla": true,
   "bplaDim": false,
   "uab": false,
   "uabDim": false,
   "fpv": false,
   "rocket": false,
   "rocket_level": false,
   "aviation": false,
   "pvo": false,
   "lat": 52.5156996,
   "lon": 35.2525686
  },
  "узловский район|тульская область": {
   "name": "Узловский район",
   "region": "Тульская область",
   "bpla": true,
   "bplaDim": false,
   "uab": false,
   "uabDim": false,
   "fpv": false,
   "rocket": false,
   "rocket_level": false,
   "aviation": false,
   "pvo": false,
   "lat": 53.9090465,
   "lon": 38.144457
  },
  "михайловский район|рязанская область": {
   "name": "Михайловский район",
   "region": "Рязанская область",
   "bpla": true,
   "bplaDim": false,
   "uab": false,
   "uabDim": false,
   "fpv": false,
   "rocket": false,
   "rocket_level": false,
   "aviation": false,
   "pvo": false,
   "lat": 54.1730639,
   "lon": 39.0746623
  },
  "харцызск|донецкая народная республика": {
   "name": "Харцызск",
   "region": "Донецкая Народная Республика",
   "bpla": true,
   "bplaDim": true,
   "uab": false,
   "uabDim": false,
   "fpv": false,
   "rocket": false,
   "rocket_level": false,
   "aviation": false,
   "pvo": false,
   "lat": 48.04277,
   "lon": 38.14025
  },
  "ясногорский район|тульская область": {
   "name": "Ясногорский район",
   "region": "Тульская область",
   "bpla": true,
   "bplaDim": false,
   "uab": false,
   "uabDim": false,
   "fpv": false,
   "rocket": false,
   "rocket_level": false,
   "aviation": false,
   "pvo": false,
   "lat": 54.5814849,
   "lon": 37.9205878
  },
  "о домодедово|московская область": {
   "name": "О Домодедово",
   "region": "Московская область",
   "bpla": true,
   "bplaDim": false,
   "uab": false,
   "uabDim": false,
   "fpv": false,
   "rocket": false,
   "rocket_level": false,
   "aviation": false,
   "pvo": false,
   "lat": 55.4546771,
   "lon": 37.7647
  },
  "сельцо|брянская область": {
   "name": "Сельцо",
   "region": "Брянская область",
   "bpla": true,
   "bplaDim": true,
   "uab": false,
   "uabDim": false,
   "fpv": false,
   "rocket": false,
   "rocket_level": false,
   "aviation": false,
   "pvo": false,
   "lat": 53.36831,
   "lon": 34.10328
  },
  "ферзиковский район|калужская область": {
   "name": "Ферзиковский район",
   "region": "Калужская область",
   "bpla": true,
   "bplaDim": false,
   "uab": false,
   "uabDim": false,
   "fpv": false,
   "rocket": false,
   "rocket_level": false,
   "aviation": false,
   "pvo": false,
   "lat": 54.5202807,
   "lon": 36.7544805
  }
 },
 "timestamp": 1783845648.405529,
 "fetched_at": "2026-07-12T08:40:48Z"
}