{
 "cities": {
  "голубицкая|краснодарский край": {
   "name": "Голубицкая",
   "region": "Краснодарский край",
   "bpla": true,
   "bplaDim": true,
   "uab": false,
   "uabDim": false,
   "fpv": false,
   "rocket": false,
   "rocket_level": false,
   "aviation": false,
   "pvo": false,
   "lat": 45.3207387,
   "lon": 37.2765537
  },
  "крымск|краснодарский край": {
   "name": "Крымск",
   "region": "Краснодарский край",
   "bpla": true,
   "bplaDim": true,
   "uab": false,
   "uabDim": false,
   "fpv": false,
   "rocket": false,
   "rocket_level": false,
   "aviation": false,
   "pvo": false,
   "lat": 44.92625,
   "lon": 37.99025
  },
  "бердянск|запорожская область": {
   "name": "Бердянск",
   "region": "Запорожская область",
   "bpla": true,
   "bplaDim": true,
   "uab": false,
   "uabDim": false,
   "fpv": false,
   "rocket": false,
   "rocket_level": false,
   "aviation": false,
   "pvo": false,
   "lat": 46.75578,
   "lon": 36.78815
  },
  "новофёдоровка|херсонская область": {
   "name": "Новофёдоровка",
   "region": "Херсонская область",
   "bpla": true,
   "bplaDim": true,
   "uab": false,
   "uabDim": false,
   "fpv": false,
   "rocket": false,
   "rocket_level": false,
   "aviation": false,
   "pvo": false,
   "lat": 46.17477,
   "lon": 32.31765
  },
  "славянск-на-кубани|краснодарский край": {
   "name": "Славянск-на-Кубани",
   "region": "Краснодарский край",
   "bpla": true,
   "bplaDim": true,
   "uab": false,
   "uabDim": false,
   "fpv": false,
   "rocket": false,
   "rocket_level": false,
   "aviation": false,
   "pvo": false,
   "lat": 45.25145,
   "lon": 38.12129
  },
  "дебальцево|донецкая народная республика": {
   "name": "Дебальцево",
   "region": "Донецкая Народная Республика",
   "bpla": true,
   "bplaDim": true,
   "uab": false,
   "uabDim": false,
   "fpv": false,
   "rocket": false,
   "rocket_level": false,
   "aviation": false,
   "pvo": false,
   "lat": 48.33592,
   "lon": 38.40261
  },
  "красная яруга|белгородская область": {
   "name": "Красная Яруга",
   "region": "Белгородская область",
   "bpla": true,
   "bplaDim": true,
   "uab": false,
   "uabDim": false,
   "fpv": false,
   "rocket": false,
   "rocket_level": false,
   "aviation": false,
   "pvo": false,
   "lat": 50.80198,
   "lon": 35.65774
  },
  "скадовск|херсонская область": {
   "name": "Скадовск",
   "region": "Херсонская область",
   "bpla": true,
   "bplaDim": true,
   "uab": false,
   "uabDim": false,
   "fpv": false,
   "rocket": false,
   "rocket_level": false,
   "aviation": false,
   "pvo": false,
   "lat": 46.11313,
   "lon": 32.90978
  },
  "евпатория|автономная республика крым": {
   "name": "Евпатория",
   "region": "Автономная Республика Крым",
   "bpla": true,
   "bplaDim": true,
   "uab": false,
   "uabDim": false,
   "fpv": false,
   "rocket": false,
   "rocket_level": false,
   "aviation": false,
   "pvo": false,
   "lat": 45.190635,
   "lon": 33.367643
  },
  "енакиево|донецкая народная республика": {
   "name": "Енакиево",
   "region": "Донецкая Народная Республика",
   "bpla": true,
   "bplaDim": true,
   "uab": false,
   "uabDim": false,
   "fpv": false,
   "rocket": false,
   "rocket_level": false,
   "aviation": false,
   "pvo": false,
   "lat": 48.23857,
   "lon": 38.20403
  },
  "урзуф|донецкая народная республика": {
   "name": "Урзуф",
   "region": "Донецкая Народная Республика",
   "bpla": true,
   "bplaDim": true,
   "uab": false,
   "uabDim": false,
   "fpv": false,
   "rocket": false,
   "rocket_level": false,
   "aviation": false,
   "pvo": false,
   "lat": 46.915382,
   "lon": 37.09875
  },
  "о клин|московская область": {
   "name": "О Клин",
   "region": "Московская область",
   "bpla": true,
   "bplaDim": false,
   "uab": false,
   "uabDim": false,
   "fpv": false,
   "rocket": false,
   "rocket_level": false,
   "aviation": false,
   "pvo": false,
   "lat": 56.318143,
   "lon": 36.744118
  },
  "крымский район|краснодарский край": {
   "name": "Крымский район",
   "region": "Краснодарский край",
   "bpla": true,
   "bplaDim": false,
   "uab": false,
   "uabDim": false,
   "fpv": false,
   "rocket": false,
   "rocket_level": false,
   "aviation": false,
   "pvo": false,
   "lat": 44.9624541,
   "lon": 37.896802
  },
  "новофёдоровка|автономная республика крым": {
   "name": "Новофёдоровка",
   "region": "Автономная Республика Крым",
   "bpla": true,
   "bplaDim": true,
   "uab": false,
   "uabDim": false,
   "fpv": false,
   "rocket": false,
   "rocket_level": false,
   "aviation": false,
   "pvo": false,
   "lat": 45.09473,
   "lon": 33.57211
  },
  "волоколамск|московская область": {
   "name": "Волоколамск",
   "region": "Московская область",
   "bpla": true,
   "bplaDim": false,
   "uab": false,
   "uabDim": false,
   "fpv": false,
   "rocket": false,
   "rocket_level": false,
   "aviation": false,
   "pvo": false,
   "lat": 56.03361,
   "lon": 35.96944
  },
  "приморск|запорожская область": {
   "name": "Приморск",
   "region": "Запорожская область",
   "bpla": true,
   "bplaDim": true,
   "uab": false,
   "uabDim": false,
   "fpv": false,
   "rocket": false,
   "rocket_level": false,
   "aviation": false,
   "pvo": false,
   "lat": 46.73415,
   "lon": 36.34599
  },
  "республика крым|автономная республика крым": {
   "name": "Республика Крым",
   "region": "Автономная Республика Крым",
   "bpla": true,
   "bplaDim": false,
   "uab": false,
   "uabDim": false,
   "fpv": false,
   "rocket": false,
   "rocket_level": false,
   "aviation": false,
   "pvo": false,
   "lat": 44.948237,
   "lon": 34.100318
  },
  "ильский|краснодарский край": {
   "name": "Ильский",
   "region": "Краснодарский край",
   "bpla": true,
   "bplaDim": true,
   "uab": false,
   "uabDim": false,
   "fpv": false,
   "rocket": false,
   "rocket_level": false,
   "aviation": false,
   "pvo": false,
   "lat": 44.8458544,
   "lon": 38.5608255
  },
  "истра|московская область": {
   "name": "Истра",
   "region": "Московская область",
   "bpla": true,
   "bplaDim": false,
   "uab": false,
   "uabDim": false,
   "fpv": false,
   "rocket": false,
   "rocket_level": false,
   "aviation": false,
   "pvo": false,
   "lat": 55.91979,
   "lon": 36.86876
  },
  "темрюк|краснодарский край": {
   "name": "Темрюк",
   "region": "Краснодарский край",
   "bpla": true,
   "bplaDim": true,
   "uab": false,
   "uabDim": false,
   "fpv": false,
   "rocket": false,
   "rocket_level": false,
   "aviation": false,
   "pvo": false,
   "lat": 45.26885,
   "lon": 37.39752
  },
  "акимовка|запорожская область": {
   "name": "Акимовка",
   "region": "Запорожская область",
   "bpla": true,
   "bplaDim": true,
   "uab": false,
   "uabDim": false,
   "fpv": false,
   "rocket": false,
   "rocket_level": false,
   "aviation": false,
   "pvo": false,
   "lat": 46.7011,
   "lon": 35.16334
  },
  "приморско-ахтарск|краснодарский край": {
   "name": "Приморско-Ахтарск",
   "region": "Краснодарский край",
   "bpla": true,
   "bplaDim": true,
   "uab": false,
   "uabDim": false,
   "fpv": false,
   "rocket": false,
   "rocket_level": false,
   "aviation": false,
   "pvo": false,
   "lat": 46.04847,
   "lon": 38.17899
  },
  "краснодар|краснодарский край": {
   "name": "Краснодар",
   "region": "Краснодарский край",
   "bpla": true,
   "bplaDim": true,
   "uab": false,
   "uabDim": false,
   "fpv": false,
   "rocket": false,
   "rocket_level": false,
   "aviation": false,
   "pvo": false,
   "lat": 45.04534,
   "lon": 38.98178
  },
  "о одинцово|московская область": {
   "name": "О Одинцово",
   "region": "Московская область",
   "bpla": true,
   "bplaDim": false,
   "uab": false,
   "uabDim": false,
   "fpv": false,
   "rocket": false,
   "rocket_level": false,
   "aviation": false,
   "pvo": false,
   "lat": 55.6785359,
   "lon": 37.2679429
  },
  "о домодедово|московская область": {
   "name": "О Домодедово",
   "region": "Московская область",
   "bpla": true,
   "bplaDim": false,
   "uab": false,
   "uabDim": false,
   "fpv": false,
   "rocket": false,
   "rocket_level": false,
   "aviation": false,
   "pvo": false,
   "lat": 55.4546771,
   "lon": 37.7647
  },
  "шахтёрск|донецкая народная республика": {
   "name": "Шахтёрск",
   "region": "Донецкая Народная Республика",
   "bpla": true,
   "bplaDim": true,
   "uab": false,
   "uabDim": false,
   "fpv": false,
   "rocket": false,
   "rocket_level": false,
   "aviation": false,
   "pvo": false,
   "lat": 48.05657,
   "lon": 38.43826
  },
  "саки|автономная республика крым": {
   "name": "Саки",
   "region": "Автономная Республика Крым",
   "bpla": true,
   "bplaDim": true,
   "uab": false,
   "uabDim": false,
   "fpv": false,
   "rocket": false,
   "rocket_level": false,
   "aviation": false,
   "pvo": false,
   "lat": 45.13293,
   "lon": 33.605237
  },
  "харцызск|донецкая народная республика": {
   "name": "Харцызск",
   "region": "Донецкая Народная Республика",
   "bpla": true,
   "bplaDim": true,
   "uab": false,
   "uabDim": false,
   "fpv": false,
   "rocket": false,
   "rocket_level": false,
   "aviation": false,
   "pvo": false,
   "lat": 48.04277,
   "lon": 38.14025
  },
  "горловка|донецкая народная республика": {
   "name": "Горловка",
   "region": "Донецкая Народная Республика",
   "bpla": true,
   "bplaDim": true,
   "uab": false,
   "uabDim": false,
   "fpv": false,
   "rocket": false,
   "rocket_level": false,
   "aviation": false,
   "pvo": false,
   "lat": 48.29986,
   "lon": 38.01709
  },
  "славянский район|краснодарский край": {
   "name": "Славянский район",
   "region": "Краснодарский край",
   "bpla": true,
   "bplaDim": false,
   "uab": false,
   "uabDim": false,
   "fpv": false,
   "rocket": false,
   "rocket_level": false,
   "aviation": false,
   "pvo": false,
   "lat": 45.432373,
   "lon": 37.8218601
  },
  "новомосковский район|тульская область": {
   "name": "Новомосковский район",
   "region": "Тульская область",
   "bpla": true,
   "bplaDim": false,
   "uab": false,
   "uabDim": false,
   "fpv": false,
   "rocket": false,
   "rocket_level": false,
   "aviation": false,
   "pvo": false,
   "lat": 54.0575926,
   "lon": 38.3597213
  },
  "старобельск|луганская народная республика": {
   "name": "Старобельск",
   "region": "Луганская Народная Республика",
   "bpla": true,
   "bplaDim": true,
   "uab": false,
   "uabDim": false,
   "fpv": false,
   "rocket": false,
   "rocket_level": false,
   "aviation": false,
   "pvo": false,
   "lat": 49.282243,
   "lon": 38.897393
  },
  "коломна|московская область": {
   "name": "Коломна",
   "region": "Московская область",
   "bpla": true,
   "bplaDim": false,
   "uab": false,
   "uabDim": false,
   "fpv": false,
   "rocket": false,
   "rocket_level": false,
   "aviation": false,
   "pvo": false,
   "lat": 55.0938743,
   "lon": 38.7670121
  },
  "новороссийск|краснодарский край": {
   "name": "Новороссийск",
   "region": "Краснодарский край",
   "bpla": true,
   "bplaDim": true,
   "uab": false,
   "uabDim": false,
   "fpv": false,
   "rocket": false,
   "rocket_level": false,
   "aviation": false,
   "pvo": false,
   "lat": 44.73188,
   "lon": 37.76176
  },
  "грайворон|белгородская область": {
   "name": "Грайворон",
   "region": "Белгородская область",
   "bpla": true,
   "bplaDim": true,
   "uab": false,
   "uabDim": false,
   "fpv": false,
   "rocket": false,
   "rocket_level": false,
   "aviation": false,
   "pvo": false,
   "lat": 50.47893,
   "lon": 35.68087
  },
  "трасса|брянская область": {
   "name": "трасса",
   "region": "Брянская область",
   "bpla": true,
   "bplaDim": true,
   "uab": false,
   "uabDim": false,
   "fpv": false,
   "rocket": false,
   "rocket_level": false,
   "aviation": false,
   "pvo": false,
   "lat": 53.395264,
   "lon": 34.3207189
  },
  "макеевка|донецкая народная республика": {
   "name": "Макеевка",
   "region": "Донецкая Народная Республика",
   "bpla": true,
   "bplaDim": true,
   "uab": false,
   "uabDim": false,
   "fpv": false,
   "rocket": false,
   "rocket_level": false,
   "aviation": false,
   "pvo": false,
   "lat": 48.04782,
   "lon": 37.92576
  },
  "щекинский район|тульская область": {
   "name": "Щекинский район",
   "region": "Тульская область",
   "bpla": true,
   "bplaDim": false,
   "uab": false,
   "uabDim": false,
   "fpv": false,
   "rocket": false,
   "rocket_level": false,
   "aviation": false,
   "pvo": false,
   "lat": 53.8906918,
   "lon": 37.3865251
  },
  "севастополь|севастополь": {
   "name": "Севастополь",
   "region": "Севастополь",
   "bpla": true,
   "bplaDim": true,
   "uab": false,
   "uabDim": false,
   "fpv": false,
   "rocket": false,
   "rocket_level": false,
   "aviation": false,
   "pvo": false,
   "lat": 44.60795,
   "lon": 33.52134
  },
  "валуйки|белгородская область": {
   "name": "Валуйки",
   "region": "Белгородская область",
   "bpla": true,
   "bplaDim": true,
   "uab": false,
   "uabDim": false,
   "fpv": false,
   "rocket": false,
   "rocket_level": false,
   "aviation": false,
   "pvo": false,
   "lat": 50.19661,
   "lon": 38.11674
  },
  "приазовское|запорожская область": {
   "name": "Приазовское",
   "region": "Запорожская область",
   "bpla": true,
   "bplaDim": true,
   "uab": false,
   "uabDim": false,
   "fpv": false,
   "rocket": false,
   "rocket_level": false,
   "aviation": false,
   "pvo": false,
   "lat": 46.73123,
   "lon": 35.64082
  },
  "каланчак|херсонская область": {
   "name": "Каланчак",
   "region": "Херсонская область",
   "bpla": true,
   "bplaDim": true,
   "uab": false,
   "uabDim": false,
   "fpv": false,
   "rocket": false,
   "rocket_level": false,
   "aviation": false,
   "pvo": false,
   "lat": 46.25495,
   "lon": 33.29061
  },
  "волоконовка|белгородская область": {
   "name": "Волоконовка",
   "region": "Белгородская область",
   "bpla": true,
   "bplaDim": true,
   "uab": false,
   "uabDim": false,
   "fpv": false,
   "rocket": false,
   "rocket_level": false,
   "aviation": false,
   "pvo": false,
   "lat": 50.48504,
   "lon": 37.86093
  },
  "сочи|краснодарский край": {
   "name": "Сочи",
   "region": "Краснодарский край",
   "bpla": true,
   "bplaDim": true,
   "uab": false,
   "uabDim": false,
   "fpv": false,
   "rocket": false,
   "rocket_level": false,
   "aviation": false,
   "pvo": false,
   "lat": 43.59699,
   "lon": 39.72477
  },
  "мелитополь|запорожская область": {
   "name": "Мелитополь",
   "region": "Запорожская область",
   "bpla": true,
   "bplaDim": true,
   "uab": false,
   "uabDim": false,
   "fpv": false,
   "rocket": false,
   "rocket_level": false,
   "aviation": false,
   "pvo": false,
   "lat": 46.84735,
   "lon": 35.38196
  },
  "афипский|краснодарский край": {
   "name": "Афипский",
   "region": "Краснодарский край",
   "bpla": true,
   "bplaDim": true,
   "uab": false,
   "uabDim": false,
   "fpv": false,
   "rocket": false,
   "rocket_level": false,
   "aviation": false,
   "pvo": false,
   "lat": 44.9040435,
   "lon": 38.8426821
  },
  "мариуполь|донецкая народная республика": {
   "name": "Мариуполь",
   "region": "Донецкая Народная Республика",
   "bpla": true,
   "bplaDim": false,
   "uab": false,
   "uabDim": false,
   "fpv": false,
   "rocket": false,
   "rocket_level": false,
   "aviation": false,
   "pvo": false,
   "lat": 47.09514,
   "lon": 37.54131
  },
  "родинское|донецкая народная республика": {
   "name": "Родинское",
   "region": "Донецкая Народная Республика",
   "bpla": false,
   "bplaDim": false,
   "uab": false,
   "uabDim": false,
   "fpv": false,
   "rocket": true,
   "rocket_level": true,
   "aviation": false,
   "pvo": false,
   "lat": 48.35415,
   "lon": 37.20641
  }
 },
 "timestamp": 1783926977.318513,
 "fetched_at": "2026-07-13T07:16:17Z"
}