{
 "cities": {
  "приморск|запорожская область": {
   "name": "Приморск",
   "region": "Запорожская область",
   "bpla": true,
   "bplaDim": true,
   "uab": false,
   "uabDim": false,
   "fpv": false,
   "rocket": false,
   "rocket_level": false,
   "aviation": false,
   "pvo": false,
   "lat": 46.73415,
   "lon": 36.34599
  },
  "новоазовск|донецкая народная республика": {
   "name": "Новоазовск",
   "region": "Донецкая Народная Республика",
   "bpla": true,
   "bplaDim": true,
   "uab": false,
   "uabDim": false,
   "fpv": false,
   "rocket": false,
   "rocket_level": false,
   "aviation": false,
   "pvo": false,
   "lat": 47.11389,
   "lon": 38.08599
  },
  "болховский район|орловская область": {
   "name": "Болховский район",
   "region": "Орловская область",
   "bpla": true,
   "bplaDim": false,
   "uab": false,
   "uabDim": false,
   "fpv": false,
   "rocket": false,
   "rocket_level": false,
   "aviation": false,
   "pvo": false,
   "lat": 53.4361073,
   "lon": 35.9880329
  },
  "⚠️|курская область": {
   "name": "⚠️",
   "region": "Курская область",
   "bpla": false,
   "bplaDim": false,
   "uab": false,
   "uabDim": false,
   "fpv": false,
   "rocket": true,
   "rocket_level": true,
   "aviation": false,
   "pvo": false,
   "lat": 51.6568453,
   "lon": 36.4852695
  },
  "арсеньевский район|тульская область": {
   "name": "Арсеньевский район",
   "region": "Тульская область",
   "bpla": true,
   "bplaDim": false,
   "uab": false,
   "uabDim": false,
   "fpv": false,
   "rocket": false,
   "rocket_level": false,
   "aviation": false,
   "pvo": false,
   "lat": 53.6268642,
   "lon": 36.5818743
  },
  "шебекино|белгородская область": {
   "name": "Шебекино",
   "region": "Белгородская область",
   "bpla": true,
   "bplaDim": true,
   "uab": false,
   "uabDim": false,
   "fpv": false,
   "rocket": false,
   "rocket_level": false,
   "aviation": false,
   "pvo": false,
   "lat": 50.41342,
   "lon": 36.92537
  },
  "белгород|белгородская область": {
   "name": "Белгород",
   "region": "Белгородская область",
   "bpla": true,
   "bplaDim": true,
   "uab": false,
   "uabDim": false,
   "fpv": false,
   "rocket": false,
   "rocket_level": false,
   "aviation": false,
   "pvo": false,
   "lat": 50.5955595,
   "lon": 36.5873394
  },
  "стародуб|брянская область": {
   "name": "Стародуб",
   "region": "Брянская область",
   "bpla": true,
   "bplaDim": true,
   "uab": false,
   "uabDim": false,
   "fpv": false,
   "rocket": false,
   "rocket_level": false,
   "aviation": false,
   "pvo": false,
   "lat": 52.58501,
   "lon": 32.76314
  },
  "керченский полуостров|автономная республика крым": {
   "name": "Керченский полуостров",
   "region": "Автономная Республика Крым",
   "bpla": true,
   "bplaDim": true,
   "uab": false,
   "uabDim": false,
   "fpv": false,
   "rocket": false,
   "rocket_level": false,
   "aviation": false,
   "pvo": false,
   "lat": 45.250954,
   "lon": 36.140668
  },
  "республика крым|автономная республика крым": {
   "name": "Республика Крым",
   "region": "Автономная Республика Крым",
   "bpla": true,
   "bplaDim": true,
   "uab": false,
   "uabDim": false,
   "fpv": false,
   "rocket": false,
   "rocket_level": false,
   "aviation": false,
   "pvo": false,
   "lat": 44.948237,
   "lon": 34.100318
  },
  "урзуф|донецкая народная республика": {
   "name": "Урзуф",
   "region": "Донецкая Народная Республика",
   "bpla": true,
   "bplaDim": false,
   "uab": false,
   "uabDim": false,
   "fpv": false,
   "rocket": false,
   "rocket_level": false,
   "aviation": false,
   "pvo": false,
   "lat": 46.915382,
   "lon": 37.09875
  },
  "тульская область|московская область": {
   "name": "Тульская область",
   "region": "Московская область",
   "bpla": true,
   "bplaDim": true,
   "uab": false,
   "uabDim": false,
   "fpv": false,
   "rocket": false,
   "rocket_level": false,
   "aviation": false,
   "pvo": false,
   "lat": 55.9762394,
   "lon": 37.4982735
  },
  "белевский район|тульская область": {
   "name": "Белевский район",
   "region": "Тульская область",
   "bpla": true,
   "bplaDim": false,
   "uab": false,
   "uabDim": false,
   "fpv": false,
   "rocket": false,
   "rocket_level": false,
   "aviation": false,
   "pvo": false,
   "lat": 53.761018,
   "lon": 36.1633658
  },
  "мангуш|донецкая народная республика": {
   "name": "Мангуш",
   "region": "Донецкая Народная Республика",
   "bpla": true,
   "bplaDim": true,
   "uab": false,
   "uabDim": false,
   "fpv": false,
   "rocket": false,
   "rocket_level": false,
   "aviation": false,
   "pvo": false,
   "lat": 47.05625,
   "lon": 37.31193
  },
  "мариуполь|донецкая народная республика": {
   "name": "Мариуполь",
   "region": "Донецкая Народная Республика",
   "bpla": true,
   "bplaDim": false,
   "uab": false,
   "uabDim": false,
   "fpv": false,
   "rocket": false,
   "rocket_level": false,
   "aviation": false,
   "pvo": false,
   "lat": 47.09514,
   "lon": 37.54131
  },
  "мценский район|орловская область": {
   "name": "Мценский район",
   "region": "Орловская область",
   "bpla": true,
   "bplaDim": false,
   "uab": false,
   "uabDim": false,
   "fpv": false,
   "rocket": false,
   "rocket_level": false,
   "aviation": false,
   "pvo": false,
   "lat": 53.2451748,
   "lon": 36.5945584
  },
  "троицкое|луганская народная республика": {
   "name": "Троицкое",
   "region": "Луганская Народная Республика",
   "bpla": true,
   "bplaDim": true,
   "uab": false,
   "uabDim": false,
   "fpv": false,
   "rocket": false,
   "rocket_level": false,
   "aviation": false,
   "pvo": false,
   "lat": 49.91454,
   "lon": 38.29265
  },
  "токмак|запорожская область": {
   "name": "Токмак",
   "region": "Запорожская область",
   "bpla": true,
   "bplaDim": true,
   "uab": false,
   "uabDim": false,
   "fpv": false,
   "rocket": false,
   "rocket_level": false,
   "aviation": false,
   "pvo": false,
   "lat": 47.25554,
   "lon": 35.70836
  },
  "рыльск|курская область": {
   "name": "Рыльск",
   "region": "Курская область",
   "bpla": true,
   "bplaDim": true,
   "uab": false,
   "uabDim": false,
   "fpv": false,
   "rocket": false,
   "rocket_level": false,
   "aviation": false,
   "pvo": false,
   "lat": 51.570538,
   "lon": 34.683506
  },
  "суземка|брянская область": {
   "name": "Суземка",
   "region": "Брянская область",
   "bpla": true,
   "bplaDim": true,
   "uab": false,
   "uabDim": false,
   "fpv": false,
   "rocket": false,
   "rocket_level": false,
   "aviation": false,
   "pvo": false,
   "lat": 52.31834,
   "lon": 34.07899
  },
  "чернский район|тульская область": {
   "name": "Чернский район",
   "region": "Тульская область",
   "bpla": true,
   "bplaDim": false,
   "uab": false,
   "uabDim": false,
   "fpv": false,
   "rocket": false,
   "rocket_level": false,
   "aviation": false,
   "pvo": false,
   "lat": 53.4518396,
   "lon": 36.8219827
  },
  "старобельск|луганская народная республика": {
   "name": "Старобельск",
   "region": "Луганская Народная Республика",
   "bpla": true,
   "bplaDim": true,
   "uab": false,
   "uabDim": false,
   "fpv": false,
   "rocket": false,
   "rocket_level": false,
   "aviation": false,
   "pvo": false,
   "lat": 49.282243,
   "lon": 38.897393
  },
  "брянск|брянская область": {
   "name": "Брянск",
   "region": "Брянская область",
   "bpla": true,
   "bplaDim": true,
   "uab": false,
   "uabDim": false,
   "fpv": false,
   "rocket": false,
   "rocket_level": false,
   "aviation": false,
   "pvo": false,
   "lat": 53.27096,
   "lon": 34.32143
  }
 },
 "timestamp": 1783591866.009686,
 "fetched_at": "2026-07-09T10:11:06Z"
}