{
 "cities": {
  "зерноград|ростовская область": {
   "name": "Зерноград",
   "region": "Ростовская область",
   "bpla": true,
   "bplaDim": true,
   "uab": false,
   "uabDim": false,
   "fpv": false,
   "rocket": false,
   "rocket_level": false,
   "aviation": false,
   "pvo": false,
   "lat": 46.84862,
   "lon": 40.31164
  },
  "мелитополь|запорожская область": {
   "name": "Мелитополь",
   "region": "Запорожская область",
   "bpla": true,
   "bplaDim": false,
   "uab": false,
   "uabDim": false,
   "fpv": false,
   "rocket": false,
   "rocket_level": false,
   "aviation": false,
   "pvo": false,
   "lat": 46.84735,
   "lon": 35.38196
  },
  "рохманово|брянская область": {
   "name": "Рохманово",
   "region": "Брянская область",
   "bpla": true,
   "bplaDim": true,
   "uab": false,
   "uabDim": false,
   "fpv": false,
   "rocket": false,
   "rocket_level": false,
   "aviation": false,
   "pvo": false,
   "lat": 52.7501468,
   "lon": 32.8823703
  },
  "алексин|тульская область": {
   "name": "Алексин",
   "region": "Тульская область",
   "bpla": true,
   "bplaDim": false,
   "uab": false,
   "uabDim": false,
   "fpv": false,
   "rocket": false,
   "rocket_level": false,
   "aviation": false,
   "pvo": true,
   "lat": 54.50484,
   "lon": 37.06697
  },
  "беловодск|луганская народная республика": {
   "name": "Беловодск",
   "region": "Луганская Народная Республика",
   "bpla": true,
   "bplaDim": true,
   "uab": false,
   "uabDim": false,
   "fpv": false,
   "rocket": false,
   "rocket_level": false,
   "aviation": false,
   "pvo": false,
   "lat": 49.20846,
   "lon": 39.58975
  },
  "ахтарский|краснодарский край": {
   "name": "Ахтарский",
   "region": "Краснодарский край",
   "bpla": true,
   "bplaDim": false,
   "uab": false,
   "uabDim": false,
   "fpv": false,
   "rocket": false,
   "rocket_level": false,
   "aviation": false,
   "pvo": false,
   "lat": 46.0494355,
   "lon": 38.1701967
  },
  "кучугуры|краснодарский край": {
   "name": "Кучугуры",
   "region": "Краснодарский край",
   "bpla": true,
   "bplaDim": true,
   "uab": false,
   "uabDim": false,
   "fpv": false,
   "rocket": false,
   "rocket_level": false,
   "aviation": false,
   "pvo": false,
   "lat": 45.4084502,
   "lon": 36.9533724
  },
  "туапсе|краснодарский край": {
   "name": "Туапсе",
   "region": "Краснодарский край",
   "bpla": true,
   "bplaDim": true,
   "uab": false,
   "uabDim": false,
   "fpv": false,
   "rocket": false,
   "rocket_level": false,
   "aviation": false,
   "pvo": false,
   "lat": 44.0984747,
   "lon": 39.0718875
  },
  "витино|автономная республика крым": {
   "name": "Витино",
   "region": "Автономная Республика Крым",
   "bpla": true,
   "bplaDim": true,
   "uab": false,
   "uabDim": false,
   "fpv": false,
   "rocket": false,
   "rocket_level": false,
   "aviation": false,
   "pvo": false,
   "lat": 45.208513,
   "lon": 33.153134
  },
  "новые ивайтëнки|брянская область": {
   "name": "Новые Ивайтëнки",
   "region": "Брянская область",
   "bpla": true,
   "bplaDim": true,
   "uab": false,
   "uabDim": false,
   "fpv": false,
   "rocket": false,
   "rocket_level": false,
   "aviation": false,
   "pvo": false,
   "lat": 52.7815506,
   "lon": 33.0676042
  },
  "ростов-на-дону|ростовская область": {
   "name": "Ростов-на-Дону",
   "region": "Ростовская область",
   "bpla": true,
   "bplaDim": true,
   "uab": false,
   "uabDim": false,
   "fpv": false,
   "rocket": false,
   "rocket_level": false,
   "aviation": false,
   "pvo": false,
   "lat": 47.21997,
   "lon": 39.70769
  },
  "саки|автономная республика крым": {
   "name": "Саки",
   "region": "Автономная Республика Крым",
   "bpla": true,
   "bplaDim": true,
   "uab": false,
   "uabDim": false,
   "fpv": false,
   "rocket": false,
   "rocket_level": false,
   "aviation": false,
   "pvo": false,
   "lat": 45.13293,
   "lon": 33.605237
  },
  "приморск|запорожская область": {
   "name": "Приморск",
   "region": "Запорожская область",
   "bpla": true,
   "bplaDim": false,
   "uab": false,
   "uabDim": false,
   "fpv": false,
   "rocket": false,
   "rocket_level": false,
   "aviation": false,
   "pvo": false,
   "lat": 46.73415,
   "lon": 36.34599
  },
  "вилино|автономная республика крым": {
   "name": "Вилино",
   "region": "Автономная Республика Крым",
   "bpla": true,
   "bplaDim": true,
   "uab": false,
   "uabDim": false,
   "fpv": false,
   "rocket": false,
   "rocket_level": false,
   "aviation": false,
   "pvo": false,
   "lat": 44.8456,
   "lon": 33.67161
  },
  "бердянск|запорожская область": {
   "name": "Бердянск",
   "region": "Запорожская область",
   "bpla": true,
   "bplaDim": false,
   "uab": false,
   "uabDim": false,
   "fpv": false,
   "rocket": false,
   "rocket_level": false,
   "aviation": false,
   "pvo": false,
   "lat": 46.75578,
   "lon": 36.78815
  },
  "мирный|херсонская область": {
   "name": "Мирный",
   "region": "Херсонская область",
   "bpla": true,
   "bplaDim": true,
   "uab": false,
   "uabDim": false,
   "fpv": false,
   "rocket": false,
   "rocket_level": false,
   "aviation": false,
   "pvo": false,
   "lat": 46.249891,
   "lon": 33.463304
  },
  "дергачи|севастополь": {
   "name": "Дергачи",
   "region": "Севастополь",
   "bpla": true,
   "bplaDim": true,
   "uab": false,
   "uabDim": false,
   "fpv": false,
   "rocket": false,
   "rocket_level": false,
   "aviation": false,
   "pvo": false,
   "lat": 44.573721,
   "lon": 33.586724
  },
  "ярославль|ярославская область": {
   "name": "Ярославль",
   "region": "Ярославская область",
   "bpla": true,
   "bplaDim": true,
   "uab": false,
   "uabDim": false,
   "fpv": false,
   "rocket": false,
   "rocket_level": false,
   "aviation": false,
   "pvo": false,
   "lat": 57.62987,
   "lon": 39.87368
  },
  "раевская|краснодарский край": {
   "name": "Раевская",
   "region": "Краснодарский край",
   "bpla": true,
   "bplaDim": true,
   "uab": false,
   "uabDim": false,
   "fpv": false,
   "rocket": false,
   "rocket_level": false,
   "aviation": false,
   "pvo": false,
   "lat": 44.835358,
   "lon": 37.549259
  },
  "инкерман|севастополь": {
   "name": "Инкерман",
   "region": "Севастополь",
   "bpla": true,
   "bplaDim": true,
   "uab": false,
   "uabDim": false,
   "fpv": false,
   "rocket": false,
   "rocket_level": false,
   "aviation": false,
   "pvo": false,
   "lat": 44.61391,
   "lon": 33.6098
  },
  "батайск|ростовская область": {
   "name": "Батайск",
   "region": "Ростовская область",
   "bpla": true,
   "bplaDim": true,
   "uab": false,
   "uabDim": false,
   "fpv": false,
   "rocket": false,
   "rocket_level": false,
   "aviation": false,
   "pvo": false,
   "lat": 47.13746,
   "lon": 39.75713
  },
  "великая лепетиха|херсонская область": {
   "name": "Великая Лепетиха",
   "region": "Херсонская область",
   "bpla": true,
   "bplaDim": true,
   "uab": false,
   "uabDim": false,
   "fpv": false,
   "rocket": false,
   "rocket_level": false,
   "aviation": false,
   "pvo": false,
   "lat": 47.17138,
   "lon": 33.93147
  },
  "макеевка|донецкая народная республика": {
   "name": "Макеевка",
   "region": "Донецкая Народная Республика",
   "bpla": true,
   "bplaDim": false,
   "uab": false,
   "uabDim": false,
   "fpv": false,
   "rocket": false,
   "rocket_level": false,
   "aviation": false,
   "pvo": false,
   "lat": 48.04782,
   "lon": 37.92576
  },
  "черноморское|автономная республика крым": {
   "name": "Черноморское",
   "region": "Автономная Республика Крым",
   "bpla": true,
   "bplaDim": true,
   "uab": false,
   "uabDim": false,
   "fpv": false,
   "rocket": false,
   "rocket_level": false,
   "aviation": false,
   "pvo": false,
   "lat": 45.50657,
   "lon": 32.69776
  },
  "ильский|краснодарский край": {
   "name": "Ильский",
   "region": "Краснодарский край",
   "bpla": true,
   "bplaDim": true,
   "uab": false,
   "uabDim": false,
   "fpv": false,
   "rocket": false,
   "rocket_level": false,
   "aviation": false,
   "pvo": false,
   "lat": 44.8458544,
   "lon": 38.5608255
  },
  "кировское|автономная республика крым": {
   "name": "Кировское",
   "region": "Автономная Республика Крым",
   "bpla": true,
   "bplaDim": true,
   "uab": false,
   "uabDim": false,
   "fpv": false,
   "rocket": false,
   "rocket_level": false,
   "aviation": false,
   "pvo": false,
   "lat": 45.22967,
   "lon": 35.19987
  },
  "северодонецк|луганская народная республика": {
   "name": "Северодонецк",
   "region": "Луганская Народная Республика",
   "bpla": true,
   "bplaDim": true,
   "uab": false,
   "uabDim": false,
   "fpv": false,
   "rocket": false,
   "rocket_level": false,
   "aviation": false,
   "pvo": false,
   "lat": 48.94628,
   "lon": 38.48624
  },
  "приазовский|краснодарский край": {
   "name": "Приазовский",
   "region": "Краснодарский край",
   "bpla": true,
   "bplaDim": true,
   "uab": false,
   "uabDim": false,
   "fpv": false,
   "rocket": false,
   "rocket_level": false,
   "aviation": false,
   "pvo": false,
   "lat": 45.4420949,
   "lon": 36.8403945
  },
  "тула|тульская область": {
   "name": "Тула",
   "region": "Тульская область",
   "bpla": true,
   "bplaDim": false,
   "uab": false,
   "uabDim": false,
   "fpv": false,
   "rocket": false,
   "rocket_level": false,
   "aviation": false,
   "pvo": false,
   "lat": 54.19609,
   "lon": 37.61822
  },
  "афипский|краснодарский край": {
   "name": "Афипский",
   "region": "Краснодарский край",
   "bpla": true,
   "bplaDim": true,
   "uab": false,
   "uabDim": false,
   "fpv": false,
   "rocket": false,
   "rocket_level": false,
   "aviation": false,
   "pvo": false,
   "lat": 44.9040435,
   "lon": 38.8426821
  },
  "республика крым|автономная республика крым": {
   "name": "Республика Крым",
   "region": "Автономная Республика Крым",
   "bpla": true,
   "bplaDim": true,
   "uab": false,
   "uabDim": false,
   "fpv": false,
   "rocket": false,
   "rocket_level": false,
   "aviation": false,
   "pvo": false,
   "lat": 44.948237,
   "lon": 34.100318
  },
  "дятьково|брянская область": {
   "name": "Дятьково",
   "region": "Брянская область",
   "bpla": true,
   "bplaDim": true,
   "uab": false,
   "uabDim": false,
   "fpv": false,
   "rocket": false,
   "rocket_level": false,
   "aviation": false,
   "pvo": false,
   "lat": 53.59782,
   "lon": 34.33825
  },
  "брянск|брянская область": {
   "name": "Брянск",
   "region": "Брянская область",
   "bpla": true,
   "bplaDim": true,
   "uab": false,
   "uabDim": false,
   "fpv": false,
   "rocket": false,
   "rocket_level": false,
   "aviation": false,
   "pvo": false,
   "lat": 53.27096,
   "lon": 34.32143
  },
  "керчь|автономная республика крым": {
   "name": "Керчь",
   "region": "Автономная Республика Крым",
   "bpla": true,
   "bplaDim": false,
   "uab": false,
   "uabDim": false,
   "fpv": false,
   "rocket": false,
   "rocket_level": false,
   "aviation": false,
   "pvo": false,
   "lat": 45.35675,
   "lon": 36.47542
  },
  "краснодар|краснодарский край": {
   "name": "Краснодар",
   "region": "Краснодарский край",
   "bpla": true,
   "bplaDim": true,
   "uab": false,
   "uabDim": false,
   "fpv": false,
   "rocket": false,
   "rocket_level": false,
   "aviation": false,
   "pvo": false,
   "lat": 45.04534,
   "lon": 38.98178
  },
  "каховка|херсонская область": {
   "name": "Каховка",
   "region": "Херсонская область",
   "bpla": true,
   "bplaDim": true,
   "uab": false,
   "uabDim": false,
   "fpv": false,
   "rocket": false,
   "rocket_level": false,
   "aviation": false,
   "pvo": false,
   "lat": 46.81601,
   "lon": 33.47862
  },
  "докучаевск|донецкая народная республика": {
   "name": "Докучаевск",
   "region": "Донецкая Народная Республика",
   "bpla": true,
   "bplaDim": true,
   "uab": false,
   "uabDim": false,
   "fpv": false,
   "rocket": false,
   "rocket_level": false,
   "aviation": false,
   "pvo": false,
   "lat": 47.7522,
   "lon": 37.67761
  },
  "старобешево|донецкая народная республика": {
   "name": "Старобешево",
   "region": "Донецкая Народная Республика",
   "bpla": true,
   "bplaDim": true,
   "uab": false,
   "uabDim": false,
   "fpv": false,
   "rocket": false,
   "rocket_level": false,
   "aviation": false,
   "pvo": false,
   "lat": 47.75068,
   "lon": 38.03039
  },
  "ейск|краснодарский край": {
   "name": "Ейск",
   "region": "Краснодарский край",
   "bpla": true,
   "bplaDim": false,
   "uab": false,
   "uabDim": false,
   "fpv": false,
   "rocket": false,
   "rocket_level": false,
   "aviation": false,
   "pvo": false,
   "lat": 46.69263,
   "lon": 38.27907
  },
  "клинцы|брянская область": {
   "name": "Клинцы",
   "region": "Брянская область",
   "bpla": true,
   "bplaDim": true,
   "uab": false,
   "uabDim": false,
   "fpv": false,
   "rocket": false,
   "rocket_level": false,
   "aviation": false,
   "pvo": false,
   "lat": 52.76033,
   "lon": 32.23905
  },
  "раевская - новороссийск|краснодарский край": {
   "name": "Раевская - Новороссийск",
   "region": "Краснодарский край",
   "bpla": true,
   "bplaDim": true,
   "uab": false,
   "uabDim": false,
   "fpv": false,
   "rocket": false,
   "rocket_level": false,
   "aviation": false,
   "pvo": false,
   "lat": 44.835358,
   "lon": 37.549259
  },
  "ровеньки|луганская народная республика": {
   "name": "Ровеньки",
   "region": "Луганская Народная Республика",
   "bpla": true,
   "bplaDim": true,
   "uab": false,
   "uabDim": false,
   "fpv": false,
   "rocket": false,
   "rocket_level": false,
   "aviation": false,
   "pvo": false,
   "lat": 48.08331,
   "lon": 39.37764
  },
  "великая белозерка|запорожская область": {
   "name": "Великая Белозерка",
   "region": "Запорожская область",
   "bpla": true,
   "bplaDim": false,
   "uab": false,
   "uabDim": false,
   "fpv": false,
   "rocket": false,
   "rocket_level": false,
   "aviation": false,
   "pvo": false,
   "lat": 47.27572,
   "lon": 34.68457
  },
  "таганрог|ростовская область": {
   "name": "Таганрог",
   "region": "Ростовская область",
   "bpla": true,
   "bplaDim": false,
   "uab": false,
   "uabDim": false,
   "fpv": false,
   "rocket": false,
   "rocket_level": false,
   "aviation": false,
   "pvo": false,
   "lat": 47.23627,
   "lon": 38.9053
  },
  "уютное|автономная республика крым": {
   "name": "Уютное",
   "region": "Автономная Республика Крым",
   "bpla": true,
   "bplaDim": true,
   "uab": false,
   "uabDim": false,
   "fpv": false,
   "rocket": false,
   "rocket_level": false,
   "aviation": false,
   "pvo": false,
   "lat": 45.199235,
   "lon": 33.299703
  },
  "климово|брянская область": {
   "name": "Климово",
   "region": "Брянская область",
   "bpla": true,
   "bplaDim": true,
   "uab": false,
   "uabDim": false,
   "fpv": false,
   "rocket": false,
   "rocket_level": false,
   "aviation": false,
   "pvo": false,
   "lat": 52.37877,
   "lon": 32.1963
  },
  "азов|ростовская область": {
   "name": "Азов",
   "region": "Ростовская область",
   "bpla": true,
   "bplaDim": true,
   "uab": false,
   "uabDim": false,
   "fpv": false,
   "rocket": false,
   "rocket_level": false,
   "aviation": false,
   "pvo": false,
   "lat": 47.1069,
   "lon": 39.41486
  },
  "донецк|донецкая народная республика": {
   "name": "Донецк",
   "region": "Донецкая Народная Республика",
   "bpla": true,
   "bplaDim": false,
   "uab": false,
   "uabDim": false,
   "fpv": false,
   "rocket": false,
   "rocket_level": false,
   "aviation": false,
   "pvo": false,
   "lat": 48.023,
   "lon": 37.80224
  },
  "мариуполь|донецкая народная республика": {
   "name": "Мариуполь",
   "region": "Донецкая Народная Республика",
   "bpla": true,
   "bplaDim": false,
   "uab": false,
   "uabDim": false,
   "fpv": false,
   "rocket": false,
   "rocket_level": false,
   "aviation": false,
   "pvo": false,
   "lat": 47.09514,
   "lon": 37.54131
  },
  "тамань|краснодарский край": {
   "name": "Тамань",
   "region": "Краснодарский край",
   "bpla": true,
   "bplaDim": true,
   "uab": false,
   "uabDim": false,
   "fpv": false,
   "rocket": false,
   "rocket_level": false,
   "aviation": false,
   "pvo": false,
   "lat": 45.2158646,
   "lon": 36.7191326
  },
  "голубицкая|краснодарский край": {
   "name": "Голубицкая",
   "region": "Краснодарский край",
   "bpla": true,
   "bplaDim": true,
   "uab": false,
   "uabDim": false,
   "fpv": false,
   "rocket": false,
   "rocket_level": false,
   "aviation": false,
   "pvo": false,
   "lat": 45.3207387,
   "lon": 37.2765537
  },
  "крымск|краснодарский край": {
   "name": "Крымск",
   "region": "Краснодарский край",
   "bpla": true,
   "bplaDim": true,
   "uab": false,
   "uabDim": false,
   "fpv": false,
   "rocket": false,
   "rocket_level": false,
   "aviation": false,
   "pvo": false,
   "lat": 44.92625,
   "lon": 37.99025
  },
  "таманский полуостров|краснодарский край": {
   "name": "Таманский полуостров",
   "region": "Краснодарский край",
   "bpla": true,
   "bplaDim": true,
   "uab": false,
   "uabDim": false,
   "fpv": false,
   "rocket": false,
   "rocket_level": false,
   "aviation": false,
   "pvo": false,
   "lat": 45.228747,
   "lon": 37.172906
  },
  "свердловск|луганская народная республика": {
   "name": "Свердловск",
   "region": "Луганская Народная Республика",
   "bpla": true,
   "bplaDim": true,
   "uab": false,
   "uabDim": false,
   "fpv": false,
   "rocket": false,
   "rocket_level": false,
   "aviation": false,
   "pvo": false,
   "lat": 48.08964,
   "lon": 39.65243
  },
  "ильич|краснодарский край": {
   "name": "Ильич",
   "region": "Краснодарский край",
   "bpla": true,
   "bplaDim": true,
   "uab": false,
   "uabDim": false,
   "fpv": false,
   "rocket": false,
   "rocket_level": false,
   "aviation": false,
   "pvo": false,
   "lat": 45.4218123,
   "lon": 36.7717397
  },
  "старобельск|луганская народная республика": {
   "name": "Старобельск",
   "region": "Луганская Народная Республика",
   "bpla": true,
   "bplaDim": true,
   "uab": false,
   "uabDim": false,
   "fpv": false,
   "rocket": false,
   "rocket_level": false,
   "aviation": false,
   "pvo": false,
   "lat": 49.282243,
   "lon": 38.897393
  },
  "новоозёрное|автономная республика крым": {
   "name": "Новоозёрное",
   "region": "Автономная Республика Крым",
   "bpla": true,
   "bplaDim": true,
   "uab": false,
   "uabDim": false,
   "fpv": false,
   "rocket": false,
   "rocket_level": false,
   "aviation": false,
   "pvo": false,
   "lat": 45.38388,
   "lon": 33.11713
  },
  "мангуш|донецкая народная республика": {
   "name": "Мангуш",
   "region": "Донецкая Народная Республика",
   "bpla": true,
   "bplaDim": true,
   "uab": false,
   "uabDim": false,
   "fpv": false,
   "rocket": false,
   "rocket_level": false,
   "aviation": false,
   "pvo": false,
   "lat": 47.05625,
   "lon": 37.31193
  },
  "керченский полуостров|автономная республика крым": {
   "name": "Керченский полуостров",
   "region": "Автономная Республика Крым",
   "bpla": true,
   "bplaDim": true,
   "uab": false,
   "uabDim": false,
   "fpv": false,
   "rocket": false,
   "rocket_level": false,
   "aviation": false,
   "pvo": false,
   "lat": 45.250954,
   "lon": 36.140668
  },
  "волноваха|донецкая народная республика": {
   "name": "Волноваха",
   "region": "Донецкая Народная Республика",
   "bpla": true,
   "bplaDim": true,
   "uab": false,
   "uabDim": false,
   "fpv": false,
   "rocket": false,
   "rocket_level": false,
   "aviation": false,
   "pvo": false,
   "lat": 47.6008,
   "lon": 37.49358
  },
  "старощербиновская|краснодарский край": {
   "name": "Старощербиновская",
   "region": "Краснодарский край",
   "bpla": true,
   "bplaDim": true,
   "uab": false,
   "uabDim": false,
   "fpv": false,
   "rocket": false,
   "rocket_level": false,
   "aviation": false,
   "pvo": false,
   "lat": 46.6284506,
   "lon": 38.6624971
  },
  "евпатория|автономная республика крым": {
   "name": "Евпатория",
   "region": "Автономная Республика Крым",
   "bpla": true,
   "bplaDim": true,
   "uab": false,
   "uabDim": false,
   "fpv": false,
   "rocket": false,
   "rocket_level": false,
   "aviation": false,
   "pvo": false,
   "lat": 45.190635,
   "lon": 33.367643
  },
  "кача|автономная республика крым": {
   "name": "Кача",
   "region": "Автономная Республика Крым",
   "bpla": true,
   "bplaDim": true,
   "uab": false,
   "uabDim": false,
   "fpv": false,
   "rocket": false,
   "rocket_level": false,
   "aviation": false,
   "pvo": false,
   "lat": 44.772916,
   "lon": 33.543659
  },
  "акимовка|запорожская область": {
   "name": "Акимовка",
   "region": "Запорожская область",
   "bpla": true,
   "bplaDim": true,
   "uab": false,
   "uabDim": false,
   "fpv": false,
   "rocket": false,
   "rocket_level": false,
   "aviation": false,
   "pvo": false,
   "lat": 46.7011,
   "lon": 35.16334
  },
  "ленинградская|санкт-петербург": {
   "name": "Ленинградская",
   "region": "Санкт-Петербург",
   "bpla": true,
   "bplaDim": true,
   "uab": false,
   "uabDim": false,
   "fpv": false,
   "rocket": false,
   "rocket_level": false,
   "aviation": false,
   "pvo": false,
   "lat": 59.8235219,
   "lon": 30.3293783
  },
  "миллерово|ростовская область": {
   "name": "Миллерово",
   "region": "Ростовская область",
   "bpla": true,
   "bplaDim": true,
   "uab": false,
   "uabDim": false,
   "fpv": false,
   "rocket": false,
   "rocket_level": false,
   "aviation": false,
   "pvo": false,
   "lat": 48.92523,
   "lon": 40.39982
  },
  "сураж|брянская область": {
   "name": "Сураж",
   "region": "Брянская область",
   "bpla": true,
   "bplaDim": true,
   "uab": false,
   "uabDim": false,
   "fpv": false,
   "rocket": false,
   "rocket_level": false,
   "aviation": false,
   "pvo": false,
   "lat": 53.01747,
   "lon": 32.39178
  },
  "урзуф|донецкая народная республика": {
   "name": "Урзуф",
   "region": "Донецкая Народная Республика",
   "bpla": true,
   "bplaDim": false,
   "uab": false,
   "uabDim": false,
   "fpv": false,
   "rocket": false,
   "rocket_level": false,
   "aviation": false,
   "pvo": false,
   "lat": 46.915382,
   "lon": 37.09875
  },
  "новоазовск|донецкая народная республика": {
   "name": "Новоазовск",
   "region": "Донецкая Народная Республика",
   "bpla": true,
   "bplaDim": true,
   "uab": false,
   "uabDim": false,
   "fpv": false,
   "rocket": false,
   "rocket_level": false,
   "aviation": false,
   "pvo": false,
   "lat": 47.11389,
   "lon": 38.08599
  },
  "ялта|донецкая народная республика": {
   "name": "Ялта",
   "region": "Донецкая Народная Республика",
   "bpla": true,
   "bplaDim": true,
   "uab": false,
   "uabDim": false,
   "fpv": false,
   "rocket": false,
   "rocket_level": false,
   "aviation": false,
   "pvo": false,
   "lat": 46.96098,
   "lon": 37.27446
  },
  "перевальск|луганская народная республика": {
   "name": "Перевальск",
   "region": "Луганская Народная Республика",
   "bpla": true,
   "bplaDim": true,
   "uab": false,
   "uabDim": false,
   "fpv": false,
   "rocket": false,
   "rocket_level": false,
   "aviation": false,
   "pvo": false,
   "lat": 48.43779,
   "lon": 38.84384
  },
  "рубежное|луганская народная республика": {
   "name": "Рубежное",
   "region": "Луганская Народная Республика",
   "bpla": true,
   "bplaDim": true,
   "uab": false,
   "uabDim": false,
   "fpv": true,
   "rocket": false,
   "rocket_level": false,
   "aviation": false,
   "pvo": false,
   "lat": 49.00606,
   "lon": 38.38119
  },
  "сочи|краснодарский край": {
   "name": "Сочи",
   "region": "Краснодарский край",
   "bpla": true,
   "bplaDim": true,
   "uab": false,
   "uabDim": false,
   "fpv": false,
   "rocket": false,
   "rocket_level": false,
   "aviation": false,
   "pvo": false,
   "lat": 43.59699,
   "lon": 39.72477
  },
  "севастополь|севастополь": {
   "name": "Севастополь",
   "region": "Севастополь",
   "bpla": true,
   "bplaDim": false,
   "uab": false,
   "uabDim": false,
   "fpv": false,
   "rocket": false,
   "rocket_level": false,
   "aviation": false,
   "pvo": false,
   "lat": 44.60795,
   "lon": 33.52134
  },
  "алчевск|луганская народная республика": {
   "name": "Алчевск",
   "region": "Луганская Народная Республика",
   "bpla": true,
   "bplaDim": true,
   "uab": false,
   "uabDim": false,
   "fpv": false,
   "rocket": false,
   "rocket_level": false,
   "aviation": false,
   "pvo": false,
   "lat": 48.46893,
   "lon": 38.81669
  }
 },
 "timestamp": 1783716311.7327,
 "fetched_at": "2026-07-10T20:45:11Z"
}