{
 "cities": {
  "руднянский район|смоленская область": {
   "name": "Руднянский район",
   "region": "Смоленская область",
   "bpla": true,
   "bplaDim": false,
   "uab": false,
   "uabDim": false,
   "fpv": false,
   "rocket": false,
   "rocket_level": false,
   "aviation": false,
   "pvo": false,
   "lat": 55.0924522,
   "lon": 31.1224485
  },
  "армянск|автономная республика крым": {
   "name": "Армянск",
   "region": "Автономная Республика Крым",
   "bpla": true,
   "bplaDim": true,
   "uab": false,
   "uabDim": false,
   "fpv": false,
   "rocket": false,
   "rocket_level": false,
   "aviation": false,
   "pvo": false,
   "lat": 46.10919,
   "lon": 33.69206
  },
  "мариуполь|донецкая народная республика": {
   "name": "Мариуполь",
   "region": "Донецкая Народная Республика",
   "bpla": true,
   "bplaDim": false,
   "uab": false,
   "uabDim": false,
   "fpv": false,
   "rocket": false,
   "rocket_level": false,
   "aviation": false,
   "pvo": false,
   "lat": 47.09514,
   "lon": 37.54131
  },
  "донецк|донецкая народная республика": {
   "name": "Донецк",
   "region": "Донецкая Народная Республика",
   "bpla": true,
   "bplaDim": true,
   "uab": false,
   "uabDim": false,
   "fpv": false,
   "rocket": false,
   "rocket_level": false,
   "aviation": false,
   "pvo": false,
   "lat": 48.023,
   "lon": 37.80224
  },
  "гвардейское|автономная республика крым": {
   "name": "Гвардейское",
   "region": "Автономная Республика Крым",
   "bpla": true,
   "bplaDim": true,
   "uab": false,
   "uabDim": false,
   "fpv": false,
   "rocket": false,
   "rocket_level": false,
   "aviation": false,
   "pvo": false,
   "lat": 45.11692,
   "lon": 34.02188
  },
  "о дубна|московская область": {
   "name": "О Дубна",
   "region": "Московская область",
   "bpla": true,
   "bplaDim": true,
   "uab": false,
   "uabDim": false,
   "fpv": false,
   "rocket": false,
   "rocket_level": false,
   "aviation": false,
   "pvo": false,
   "lat": 56.7587721,
   "lon": 37.1403831
  },
  "ершичский район|смоленская область": {
   "name": "Ершичский район",
   "region": "Смоленская область",
   "bpla": true,
   "bplaDim": false,
   "uab": false,
   "uabDim": false,
   "fpv": false,
   "rocket": false,
   "rocket_level": false,
   "aviation": false,
   "pvo": false,
   "lat": 53.6046499,
   "lon": 32.6901656
  },
  "сафоновский район|смоленская область": {
   "name": "Сафоновский район",
   "region": "Смоленская область",
   "bpla": true,
   "bplaDim": false,
   "uab": false,
   "uabDim": false,
   "fpv": false,
   "rocket": false,
   "rocket_level": false,
   "aviation": false,
   "pvo": false,
   "lat": 55.2007681,
   "lon": 33.4302687
  },
  "республика крым|автономная республика крым": {
   "name": "Республика Крым",
   "region": "Автономная Республика Крым",
   "bpla": true,
   "bplaDim": true,
   "uab": false,
   "uabDim": false,
   "fpv": false,
   "rocket": false,
   "rocket_level": false,
   "aviation": false,
   "pvo": false,
   "lat": 44.948237,
   "lon": 34.100318
  },
  "кировское|автономная республика крым": {
   "name": "Кировское",
   "region": "Автономная Республика Крым",
   "bpla": true,
   "bplaDim": true,
   "uab": false,
   "uabDim": false,
   "fpv": false,
   "rocket": false,
   "rocket_level": false,
   "aviation": false,
   "pvo": false,
   "lat": 45.22967,
   "lon": 35.19987
  },
  "духовщинский район|смоленская область": {
   "name": "Духовщинский район",
   "region": "Смоленская область",
   "bpla": true,
   "bplaDim": false,
   "uab": false,
   "uabDim": false,
   "fpv": false,
   "rocket": false,
   "rocket_level": false,
   "aviation": false,
   "pvo": false,
   "lat": 55.38476,
   "lon": 32.3545111
  },
  "ейск|краснодарский край": {
   "name": "Ейск",
   "region": "Краснодарский край",
   "bpla": true,
   "bplaDim": true,
   "uab": false,
   "uabDim": false,
   "fpv": false,
   "rocket": false,
   "rocket_level": false,
   "aviation": false,
   "pvo": false,
   "lat": 46.69263,
   "lon": 38.27907
  },
  "суходольск|луганская народная республика": {
   "name": "Суходольск",
   "region": "Луганская Народная Республика",
   "bpla": true,
   "bplaDim": true,
   "uab": false,
   "uabDim": false,
   "fpv": false,
   "rocket": false,
   "rocket_level": false,
   "aviation": false,
   "pvo": false,
   "lat": 48.35022,
   "lon": 39.72698
  },
  "луганск|луганская народная республика": {
   "name": "Луганск",
   "region": "Луганская Народная Республика",
   "bpla": true,
   "bplaDim": true,
   "uab": false,
   "uabDim": false,
   "fpv": false,
   "rocket": false,
   "rocket_level": false,
   "aviation": false,
   "pvo": false,
   "lat": 48.56814,
   "lon": 39.30553
  },
  "дорогобужский район|смоленская область": {
   "name": "Дорогобужский район",
   "region": "Смоленская область",
   "bpla": true,
   "bplaDim": false,
   "uab": false,
   "uabDim": false,
   "fpv": false,
   "rocket": false,
   "rocket_level": false,
   "aviation": false,
   "pvo": false,
   "lat": 54.8478695,
   "lon": 33.323408
  },
  "приморско-ахтарск|краснодарский край": {
   "name": "Приморско-Ахтарск",
   "region": "Краснодарский край",
   "bpla": true,
   "bplaDim": true,
   "uab": false,
   "uabDim": false,
   "fpv": false,
   "rocket": false,
   "rocket_level": false,
   "aviation": false,
   "pvo": false,
   "lat": 46.04847,
   "lon": 38.17899
  },
  "ахтарский|краснодарский край": {
   "name": "Ахтарский",
   "region": "Краснодарский край",
   "bpla": true,
   "bplaDim": true,
   "uab": false,
   "uabDim": false,
   "fpv": false,
   "rocket": false,
   "rocket_level": false,
   "aviation": false,
   "pvo": false,
   "lat": 46.0494355,
   "lon": 38.1701967
  },
  "керченский полуостров|автономная республика крым": {
   "name": "Керченский полуостров",
   "region": "Автономная Республика Крым",
   "bpla": true,
   "bplaDim": true,
   "uab": false,
   "uabDim": false,
   "fpv": false,
   "rocket": false,
   "rocket_level": false,
   "aviation": false,
   "pvo": false,
   "lat": 45.250954,
   "lon": 36.140668
  },
  "раздольное|автономная республика крым": {
   "name": "Раздольное",
   "region": "Автономная Республика Крым",
   "bpla": true,
   "bplaDim": true,
   "uab": false,
   "uabDim": false,
   "fpv": false,
   "rocket": false,
   "rocket_level": false,
   "aviation": false,
   "pvo": false,
   "lat": 45.77083,
   "lon": 33.48777
  },
  "керчь|автономная республика крым": {
   "name": "Керчь",
   "region": "Автономная Республика Крым",
   "bpla": true,
   "bplaDim": true,
   "uab": false,
   "uabDim": false,
   "fpv": false,
   "rocket": false,
   "rocket_level": false,
   "aviation": false,
   "pvo": false,
   "lat": 45.35675,
   "lon": 36.47542
  },
  "шаховская|московская область": {
   "name": "Шаховская",
   "region": "Московская область",
   "bpla": true,
   "bplaDim": false,
   "uab": false,
   "uabDim": false,
   "fpv": false,
   "rocket": false,
   "rocket_level": false,
   "aviation": false,
   "pvo": false,
   "lat": 56.031464,
   "lon": 35.5102036
  },
  "починковский район|смоленская область": {
   "name": "Починковский район",
   "region": "Смоленская область",
   "bpla": true,
   "bplaDim": false,
   "uab": false,
   "uabDim": false,
   "fpv": false,
   "rocket": false,
   "rocket_level": false,
   "aviation": false,
   "pvo": false,
   "lat": 54.359728,
   "lon": 32.1169197
  },
  "жарковский район|тверская область": {
   "name": "Жарковский район",
   "region": "Тверская область",
   "bpla": true,
   "bplaDim": false,
   "uab": false,
   "uabDim": false,
   "fpv": false,
   "rocket": false,
   "rocket_level": false,
   "aviation": false,
   "pvo": false,
   "lat": 55.9100195,
   "lon": 32.2115792
  },
  "евпатория|автономная республика крым": {
   "name": "Евпатория",
   "region": "Автономная Республика Крым",
   "bpla": true,
   "bplaDim": true,
   "uab": false,
   "uabDim": false,
   "fpv": false,
   "rocket": false,
   "rocket_level": false,
   "aviation": false,
   "pvo": false,
   "lat": 45.190635,
   "lon": 33.367643
  },
  "ялта|донецкая народная республика": {
   "name": "Ялта",
   "region": "Донецкая Народная Республика",
   "bpla": true,
   "bplaDim": true,
   "uab": false,
   "uabDim": false,
   "fpv": false,
   "rocket": false,
   "rocket_level": false,
   "aviation": false,
   "pvo": false,
   "lat": 46.96098,
   "lon": 37.27446
  },
  "родаково|луганская народная республика": {
   "name": "Родаково",
   "region": "Луганская Народная Республика",
   "bpla": true,
   "bplaDim": true,
   "uab": false,
   "uabDim": false,
   "fpv": false,
   "rocket": false,
   "rocket_level": false,
   "aviation": false,
   "pvo": false,
   "lat": 48.55888,
   "lon": 39.02525
  },
  "тверь|тверская область": {
   "name": "Тверь",
   "region": "Тверская область",
   "bpla": true,
   "bplaDim": false,
   "uab": false,
   "uabDim": false,
   "fpv": false,
   "rocket": false,
   "rocket_level": false,
   "aviation": false,
   "pvo": false,
   "lat": 56.85836,
   "lon": 35.90057
  },
  "краснинский район|смоленская область": {
   "name": "Краснинский район",
   "region": "Смоленская область",
   "bpla": true,
   "bplaDim": false,
   "uab": false,
   "uabDim": false,
   "fpv": false,
   "rocket": false,
   "rocket_level": false,
   "aviation": false,
   "pvo": false,
   "lat": 54.5576035,
   "lon": 31.4654114
  },
  "феодосия|автономная республика крым": {
   "name": "Феодосия",
   "region": "Автономная Республика Крым",
   "bpla": true,
   "bplaDim": true,
   "uab": false,
   "uabDim": false,
   "fpv": false,
   "rocket": false,
   "rocket_level": false,
   "aviation": false,
   "pvo": false,
   "lat": 45.026654,
   "lon": 35.383911
  },
  "брянск, бежица|брянская область": {
   "name": "Брянск, Бежица",
   "region": "Брянская область",
   "bpla": true,
   "bplaDim": true,
   "uab": false,
   "uabDim": false,
   "fpv": false,
   "rocket": false,
   "rocket_level": false,
   "aviation": false,
   "pvo": false,
   "lat": 53.2843404,
   "lon": 34.2860878
  },
  "саки|автономная республика крым": {
   "name": "Саки",
   "region": "Автономная Республика Крым",
   "bpla": true,
   "bplaDim": true,
   "uab": false,
   "uabDim": false,
   "fpv": false,
   "rocket": false,
   "rocket_level": false,
   "aviation": false,
   "pvo": false,
   "lat": 45.13293,
   "lon": 33.605237
  },
  "краснодон|луганская народная республика": {
   "name": "Краснодон",
   "region": "Луганская Народная Республика",
   "bpla": true,
   "bplaDim": true,
   "uab": false,
   "uabDim": false,
   "fpv": false,
   "rocket": false,
   "rocket_level": false,
   "aviation": false,
   "pvo": false,
   "lat": 48.29235,
   "lon": 39.73921
  },
  "свердловск|луганская народная республика": {
   "name": "Свердловск",
   "region": "Луганская Народная Республика",
   "bpla": true,
   "bplaDim": true,
   "uab": false,
   "uabDim": false,
   "fpv": false,
   "rocket": false,
   "rocket_level": false,
   "aviation": false,
   "pvo": false,
   "lat": 48.08964,
   "lon": 39.65243
  },
  "велижский район|смоленская область": {
   "name": "Велижский район",
   "region": "Смоленская область",
   "bpla": true,
   "bplaDim": false,
   "uab": false,
   "uabDim": false,
   "fpv": false,
   "rocket": false,
   "rocket_level": false,
   "aviation": false,
   "pvo": false,
   "lat": 55.5664972,
   "lon": 31.2871581
  },
  "новоазовск|донецкая народная республика": {
   "name": "Новоазовск",
   "region": "Донецкая Народная Республика",
   "bpla": true,
   "bplaDim": true,
   "uab": false,
   "uabDim": false,
   "fpv": false,
   "rocket": false,
   "rocket_level": false,
   "aviation": false,
   "pvo": false,
   "lat": 47.11389,
   "lon": 38.08599
  }
 },
 "timestamp": 1783566351.232963,
 "fetched_at": "2026-07-09T03:05:51Z"
}