{
 "cities": {
  "锌褉懈褔械褉薪芯屑芯褉褜械|泻褉邪褋薪芯写邪褉褋泻懈泄 泻褉邪泄": {
   "name": "袩褉懈褔械褉薪芯屑芯褉褜械",
   "region": "袣褉邪褋薪芯写邪褉褋泻懈泄 泻褉邪泄",
   "bpla": true,
   "bplaDim": true,
   "uab": false,
   "uabDim": false,
   "fpv": false,
   "rocket": false,
   "rocket_level": false,
   "aviation": false,
   "pvo": false,
   "lat": 44.157515,
   "lon": 37.831548
  },
  "泻械褉褔械薪褋泻懈泄 锌芯谢褍芯褋褌褉芯胁|邪胁褌芯薪芯屑薪邪褟 褉械褋锌褍斜谢懈泻邪 泻褉褘屑": {
   "name": "袣械褉褔械薪褋泻懈泄 锌芯谢褍芯褋褌褉芯胁",
   "region": "袗胁褌芯薪芯屑薪邪褟 袪械褋锌褍斜谢懈泻邪 袣褉褘屑",
   "bpla": true,
   "bplaDim": true,
   "uab": false,
   "uabDim": false,
   "fpv": false,
   "rocket": false,
   "rocket_level": false,
   "aviation": false,
   "pvo": false,
   "lat": 45.250954,
   "lon": 36.140668
  },
  "褋褌邪褉芯写褍斜|斜褉褟薪褋泻邪褟 芯斜谢邪褋褌褜": {
   "name": "小褌邪褉芯写褍斜",
   "region": "袘褉褟薪褋泻邪褟 芯斜谢邪褋褌褜",
   "bpla": true,
   "bplaDim": true,
   "uab": false,
   "uabDim": false,
   "fpv": false,
   "rocket": false,
   "rocket_level": false,
   "aviation": false,
   "pvo": false,
   "lat": 52.58501,
   "lon": 32.76314
  },
  "泻褉邪褋薪芯写邪褉|泻褉邪褋薪芯写邪褉褋泻懈泄 泻褉邪泄": {
   "name": "袣褉邪褋薪芯写邪褉",
   "region": "袣褉邪褋薪芯写邪褉褋泻懈泄 泻褉邪泄",
   "bpla": true,
   "bplaDim": true,
   "uab": false,
   "uabDim": false,
   "fpv": false,
   "rocket": false,
   "rocket_level": false,
   "aviation": false,
   "pvo": false,
   "lat": 45.04534,
   "lon": 38.98178
  },
  "泻褍褖褢胁褋泻邪褟|泻褉邪褋薪芯写邪褉褋泻懈泄 泻褉邪泄": {
   "name": "袣褍褖褢胁褋泻邪褟",
   "region": "袣褉邪褋薪芯写邪褉褋泻懈泄 泻褉邪泄",
   "bpla": true,
   "bplaDim": true,
   "uab": false,
   "uabDim": false,
   "fpv": false,
   "rocket": false,
   "rocket_level": false,
   "aviation": false,
   "pvo": false,
   "lat": 46.5599,
   "lon": 39.6321
  },
  "泻芯褌械谢褜薪懈泻懈|屑芯褋泻芯胁褋泻邪褟 芯斜谢邪褋褌褜": {
   "name": "袣芯褌械谢褜薪懈泻懈",
   "region": "袦芯褋泻芯胁褋泻邪褟 芯斜谢邪褋褌褜",
   "bpla": true,
   "bplaDim": true,
   "uab": false,
   "uabDim": false,
   "fpv": false,
   "rocket": false,
   "rocket_level": false,
   "aviation": false,
   "pvo": false,
   "lat": 55.661668,
   "lon": 37.8673073
  },
  "芯泻褌褟斜褉褜褋泻懈泄|胁芯谢谐芯谐褉邪写褋泻邪褟 芯斜谢邪褋褌褜": {
   "name": "袨泻褌褟斜褉褜褋泻懈泄",
   "region": "袙芯谢谐芯谐褉邪写褋泻邪褟 芯斜谢邪褋褌褜",
   "bpla": true,
   "bplaDim": true,
   "uab": false,
   "uabDim": false,
   "fpv": false,
   "rocket": false,
   "rocket_level": false,
   "aviation": false,
   "pvo": false,
   "lat": 48.0349004,
   "lon": 43.8080962
  },
  "屑芯卸邪泄褋泻|屑芯褋泻芯胁褋泻邪褟 芯斜谢邪褋褌褜": {
   "name": "袦芯卸邪泄褋泻",
   "region": "袦芯褋泻芯胁褋泻邪褟 芯斜谢邪褋褌褜",
   "bpla": true,
   "bplaDim": false,
   "uab": false,
   "uabDim": false,
   "fpv": false,
   "rocket": false,
   "rocket_level": false,
   "aviation": false,
   "pvo": false,
   "lat": 55.50194,
   "lon": 36.02722
  },
  "斜械褉写褟薪褋泻|蟹邪锌芯褉芯卸褋泻邪褟 芯斜谢邪褋褌褜": {
   "name": "袘械褉写褟薪褋泻",
   "region": "袟邪锌芯褉芯卸褋泻邪褟 芯斜谢邪褋褌褜",
   "bpla": true,
   "bplaDim": false,
   "uab": false,
   "uabDim": false,
   "fpv": false,
   "rocket": false,
   "rocket_level": false,
   "aviation": false,
   "pvo": false,
   "lat": 46.75578,
   "lon": 36.78815
  },
  "褉褍蟹褋泻懈泄|屑芯褋泻芯胁褋泻邪褟 芯斜谢邪褋褌褜": {
   "name": "袪褍蟹褋泻懈泄",
   "region": "袦芯褋泻芯胁褋泻邪褟 芯斜谢邪褋褌褜",
   "bpla": true,
   "bplaDim": false,
   "uab": false,
   "uabDim": false,
   "fpv": false,
   "rocket": false,
   "rocket_level": false,
   "aviation": false,
   "pvo": false,
   "lat": 55.6973772,
   "lon": 36.2833954
  },
  "泻谢懈屑芯胁芯|斜褉褟薪褋泻邪褟 芯斜谢邪褋褌褜": {
   "name": "袣谢懈屑芯胁芯",
   "region": "袘褉褟薪褋泻邪褟 芯斜谢邪褋褌褜",
   "bpla": true,
   "bplaDim": true,
   "uab": false,
   "uabDim": false,
   "fpv": false,
   "rocket": false,
   "rocket_level": false,
   "aviation": false,
   "pvo": false,
   "lat": 52.37877,
   "lon": 32.1963
  },
  "械泄褋泻|泻褉邪褋薪芯写邪褉褋泻懈泄 泻褉邪泄": {
   "name": "袝泄褋泻",
   "region": "袣褉邪褋薪芯写邪褉褋泻懈泄 泻褉邪泄",
   "bpla": true,
   "bplaDim": true,
   "uab": false,
   "uabDim": false,
   "fpv": false,
   "rocket": false,
   "rocket_level": false,
   "aviation": false,
   "pvo": false,
   "lat": 46.69263,
   "lon": 38.27907
  },
  "锌褉懈屑芯褉褋泻|蟹邪锌芯褉芯卸褋泻邪褟 芯斜谢邪褋褌褜": {
   "name": "袩褉懈屑芯褉褋泻",
   "region": "袟邪锌芯褉芯卸褋泻邪褟 芯斜谢邪褋褌褜",
   "bpla": true,
   "bplaDim": true,
   "uab": false,
   "uabDim": false,
   "fpv": false,
   "rocket": false,
   "rocket_level": false,
   "aviation": false,
   "pvo": false,
   "lat": 46.73415,
   "lon": 36.34599
  },
  "邪写谢械褉|泻褉邪褋薪芯写邪褉褋泻懈泄 泻褉邪泄": {
   "name": "袗写谢械褉",
   "region": "袣褉邪褋薪芯写邪褉褋泻懈泄 泻褉邪泄",
   "bpla": true,
   "bplaDim": true,
   "uab": false,
   "uabDim": false,
   "fpv": false,
   "rocket": false,
   "rocket_level": false,
   "aviation": false,
   "pvo": false,
   "lat": 43.42896,
   "lon": 39.92391
  },
  "谢褞斜械褉褑褘|屑芯褋泻芯胁褋泻邪褟 芯斜谢邪褋褌褜": {
   "name": "袥褞斜械褉褑褘",
   "region": "袦芯褋泻芯胁褋泻邪褟 芯斜谢邪褋褌褜",
   "bpla": true,
   "bplaDim": false,
   "uab": false,
   "uabDim": false,
   "fpv": false,
   "rocket": false,
   "rocket_level": false,
   "aviation": false,
   "pvo": false,
   "lat": 55.67719,
   "lon": 37.89322
  },
  "褌褉邪褋褋邪|斜褉褟薪褋泻邪褟 芯斜谢邪褋褌褜": {
   "name": "褌褉邪褋褋邪",
   "region": "袘褉褟薪褋泻邪褟 芯斜谢邪褋褌褜",
   "bpla": true,
   "bplaDim": true,
   "uab": false,
   "uabDim": false,
   "fpv": false,
   "rocket": false,
   "rocket_level": false,
   "aviation": false,
   "pvo": false,
   "lat": 53.395264,
   "lon": 34.3207189
  },
  "胁芯谢薪芯胁邪褏邪|写芯薪械褑泻邪褟 薪邪褉芯写薪邪褟 褉械褋锌褍斜谢懈泻邪": {
   "name": "袙芯谢薪芯胁邪褏邪",
   "region": "袛芯薪械褑泻邪褟 袧邪褉芯写薪邪褟 袪械褋锌褍斜谢懈泻邪",
   "bpla": true,
   "bplaDim": true,
   "uab": false,
   "uabDim": false,
   "fpv": false,
   "rocket": false,
   "rocket_level": false,
   "aviation": false,
   "pvo": false,
   "lat": 47.6008,
   "lon": 37.49358
  },
  "屑芯褋邪谢褜褋泻懈泄 褉邪泄芯薪|泻邪谢褍卸褋泻邪褟 芯斜谢邪褋褌褜": {
   "name": "袦芯褋邪谢褜褋泻懈泄 褉邪泄芯薪",
   "region": "袣邪谢褍卸褋泻邪褟 芯斜谢邪褋褌褜",
   "bpla": true,
   "bplaDim": false,
   "uab": false,
   "uabDim": false,
   "fpv": false,
   "rocket": false,
   "rocket_level": false,
   "aviation": false,
   "pvo": false,
   "lat": 54.4899427,
   "lon": 34.9785769
  },
  "褌邪褉褍褋褋泻懈泄 褉邪泄芯薪|泻邪谢褍卸褋泻邪褟 芯斜谢邪褋褌褜": {
   "name": "孝邪褉褍褋褋泻懈泄 褉邪泄芯薪",
   "region": "袣邪谢褍卸褋泻邪褟 芯斜谢邪褋褌褜",
   "bpla": true,
   "bplaDim": false,
   "uab": false,
   "uabDim": false,
   "fpv": false,
   "rocket": false,
   "rocket_level": false,
   "aviation": false,
   "pvo": false,
   "lat": 54.7276266,
   "lon": 37.1771411
  },
  "屑薪芯谐芯|屑芯褋泻芯胁褋泻邪褟 芯斜谢邪褋褌褜": {
   "name": "袦薪芯谐芯",
   "region": "袦芯褋泻芯胁褋泻邪褟 芯斜谢邪褋褌褜",
   "bpla": true,
   "bplaDim": true,
   "uab": false,
   "uabDim": false,
   "fpv": false,
   "rocket": false,
   "rocket_level": false,
   "aviation": false,
   "pvo": false,
   "lat": 56.738018,
   "lon": 37.1649269
  },
  "胁芯谢薪邪|泻褉邪褋薪芯写邪褉褋泻懈泄 泻褉邪泄": {
   "name": "袙芯谢薪邪",
   "region": "袣褉邪褋薪芯写邪褉褋泻懈泄 泻褉邪泄",
   "bpla": true,
   "bplaDim": true,
   "uab": false,
   "uabDim": false,
   "fpv": false,
   "rocket": false,
   "rocket_level": false,
   "aviation": false,
   "pvo": false,
   "lat": 45.1265845,
   "lon": 36.7105844
  },
  "芯褉械谢|芯褉谢芯胁褋泻邪褟 芯斜谢邪褋褌褜": {
   "name": "袨褉械谢",
   "region": "袨褉谢芯胁褋泻邪褟 芯斜谢邪褋褌褜",
   "bpla": true,
   "bplaDim": false,
   "uab": false,
   "uabDim": false,
   "fpv": false,
   "rocket": false,
   "rocket_level": false,
   "aviation": false,
   "pvo": false,
   "lat": 52.96879,
   "lon": 36.0791
  },
  "褋懈褉懈褍褋|泻褉邪褋薪芯写邪褉褋泻懈泄 泻褉邪泄": {
   "name": "小懈褉懈褍褋",
   "region": "袣褉邪褋薪芯写邪褉褋泻懈泄 泻褉邪泄",
   "bpla": true,
   "bplaDim": true,
   "uab": false,
   "uabDim": false,
   "fpv": false,
   "rocket": false,
   "rocket_level": false,
   "aviation": false,
   "pvo": false,
   "lat": 43.404857,
   "lon": 39.959453
  },
  "泻褉邪褋薪芯邪褉屑械泄褋泻|写芯薪械褑泻邪褟 薪邪褉芯写薪邪褟 褉械褋锌褍斜谢懈泻邪": {
   "name": "袣褉邪褋薪芯邪褉屑械泄褋泻",
   "region": "袛芯薪械褑泻邪褟 袧邪褉芯写薪邪褟 袪械褋锌褍斜谢懈泻邪",
   "bpla": false,
   "bplaDim": false,
   "uab": true,
   "uabDim": true,
   "fpv": false,
   "rocket": false,
   "rocket_level": false,
   "aviation": false,
   "pvo": false,
   "lat": 48.280351,
   "lon": 37.175601
  },
  "邪芯 褌褉芯懈褑泻懈泄|屑芯褋泻胁邪": {
   "name": "袗袨 孝褉芯懈褑泻懈泄",
   "region": "袦芯褋泻胁邪",
   "bpla": true,
   "bplaDim": false,
   "uab": false,
   "uabDim": false,
   "fpv": false,
   "rocket": false,
   "rocket_level": false,
   "aviation": false,
   "pvo": false,
   "lat": 55.4825489,
   "lon": 37.3161257
  },
  "斜械谢械胁褋泻懈泄 褉邪泄芯薪|褌褍谢褜褋泻邪褟 芯斜谢邪褋褌褜": {
   "name": "袘械谢械胁褋泻懈泄 褉邪泄芯薪",
   "region": "孝褍谢褜褋泻邪褟 芯斜谢邪褋褌褜",
   "bpla": true,
   "bplaDim": false,
   "uab": false,
   "uabDim": false,
   "fpv": false,
   "rocket": false,
   "rocket_level": false,
   "aviation": false,
   "pvo": false,
   "lat": 53.761018,
   "lon": 36.1633658
  },
  "褌懈褏芯褉械褑泻|泻褉邪褋薪芯写邪褉褋泻懈泄 泻褉邪泄": {
   "name": "孝懈褏芯褉械褑泻",
   "region": "袣褉邪褋薪芯写邪褉褋泻懈泄 泻褉邪泄",
   "bpla": true,
   "bplaDim": true,
   "uab": false,
   "uabDim": false,
   "fpv": false,
   "rocket": false,
   "rocket_level": false,
   "aviation": false,
   "pvo": false,
   "lat": 45.854679,
   "lon": 40.128124
  },
  "褋械胁械褉褋泻懈泄 褉邪泄芯薪|泻褉邪褋薪芯写邪褉褋泻懈泄 泻褉邪泄": {
   "name": "小械胁械褉褋泻懈泄 褉邪泄芯薪",
   "region": "袣褉邪褋薪芯写邪褉褋泻懈泄 泻褉邪泄",
   "bpla": true,
   "bplaDim": true,
   "uab": false,
   "uabDim": false,
   "fpv": false,
   "rocket": false,
   "rocket_level": false,
   "aviation": false,
   "pvo": false,
   "lat": 44.7868858,
   "lon": 38.7079127
  },
  "锌褉懈屑芯褉褋泻懈泄|泻褉邪褋薪芯写邪褉褋泻懈泄 泻褉邪泄": {
   "name": "袩褉懈屑芯褉褋泻懈泄",
   "region": "袣褉邪褋薪芯写邪褉褋泻懈泄 泻褉邪泄",
   "bpla": true,
   "bplaDim": true,
   "uab": false,
   "uabDim": false,
   "fpv": false,
   "rocket": false,
   "rocket_level": false,
   "aviation": false,
   "pvo": false,
   "lat": 44.8304663,
   "lon": 37.649145
  },
  "谐芯褉薪芯褋褌邪械胁泻邪|褏械褉褋芯薪褋泻邪褟 芯斜谢邪褋褌褜": {
   "name": "袚芯褉薪芯褋褌邪械胁泻邪",
   "region": "啸械褉褋芯薪褋泻邪褟 芯斜谢邪褋褌褜",
   "bpla": true,
   "bplaDim": true,
   "uab": false,
   "uabDim": false,
   "fpv": false,
   "rocket": false,
   "rocket_level": false,
   "aviation": false,
   "pvo": false,
   "lat": 47.01171,
   "lon": 33.72987
  },
  "屑邪泄泻芯锌|邪写褘谐械褟": {
   "name": "袦邪泄泻芯锌",
   "region": "袗写褘谐械褟",
   "bpla": true,
   "bplaDim": true,
   "uab": false,
   "uabDim": false,
   "fpv": false,
   "rocket": false,
   "rocket_level": false,
   "aviation": false,
   "pvo": false,
   "lat": 44.60789,
   "lon": 40.10242
  },
  "邪褎懈锌褋泻懈泄|泻褉邪褋薪芯写邪褉褋泻懈泄 泻褉邪泄": {
   "name": "袗褎懈锌褋泻懈泄",
   "region": "袣褉邪褋薪芯写邪褉褋泻懈泄 泻褉邪泄",
   "bpla": true,
   "bplaDim": true,
   "uab": false,
   "uabDim": false,
   "fpv": false,
   "rocket": false,
   "rocket_level": false,
   "aviation": false,
   "pvo": false,
   "lat": 44.9040435,
   "lon": 38.8426821
  },
  "褝薪械褉谐芯写邪褉|蟹邪锌芯褉芯卸褋泻邪褟 芯斜谢邪褋褌褜": {
   "name": "协薪械褉谐芯写邪褉",
   "region": "袟邪锌芯褉芯卸褋泻邪褟 芯斜谢邪褋褌褜",
   "bpla": true,
   "bplaDim": true,
   "uab": false,
   "uabDim": false,
   "fpv": false,
   "rocket": false,
   "rocket_level": false,
   "aviation": false,
   "pvo": false,
   "lat": 47.49048,
   "lon": 34.66199
  },
  "邪薪邪锌邪, 薪芯胁芯褉芯褋褋懈泄褋泻|泻褉邪褋薪芯写邪褉褋泻懈泄 泻褉邪泄": {
   "name": "袗薪邪锌邪, 袧芯胁芯褉芯褋褋懈泄褋泻",
   "region": "袣褉邪褋薪芯写邪褉褋泻懈泄 泻褉邪泄",
   "bpla": true,
   "bplaDim": true,
   "uab": false,
   "uabDim": false,
   "fpv": false,
   "rocket": false,
   "rocket_level": false,
   "aviation": false,
   "pvo": false,
   "lat": 44.8890046,
   "lon": 37.507878
  },
  "褋谢邪胁褟薪褋泻-薪邪-泻褍斜邪薪懈|泻褉邪褋薪芯写邪褉褋泻懈泄 泻褉邪泄": {
   "name": "小谢邪胁褟薪褋泻-薪邪-袣褍斜邪薪懈",
   "region": "袣褉邪褋薪芯写邪褉褋泻懈泄 泻褉邪泄",
   "bpla": true,
   "bplaDim": true,
   "uab": false,
   "uabDim": false,
   "fpv": false,
   "rocket": false,
   "rocket_level": false,
   "aviation": false,
   "pvo": false,
   "lat": 45.25145,
   "lon": 38.12129
  },
  "褉芯写懈薪褋泻芯械|写芯薪械褑泻邪褟 薪邪褉芯写薪邪褟 褉械褋锌褍斜谢懈泻邪": {
   "name": "袪芯写懈薪褋泻芯械",
   "region": "袛芯薪械褑泻邪褟 袧邪褉芯写薪邪褟 袪械褋锌褍斜谢懈泻邪",
   "bpla": false,
   "bplaDim": false,
   "uab": true,
   "uabDim": true,
   "fpv": false,
   "rocket": false,
   "rocket_level": false,
   "aviation": false,
   "pvo": false,
   "lat": 48.35415,
   "lon": 37.20641
  },
  "泻邪谢褍谐邪|泻邪谢褍卸褋泻邪褟 芯斜谢邪褋褌褜": {
   "name": "袣邪谢褍谐邪",
   "region": "袣邪谢褍卸褋泻邪褟 芯斜谢邪褋褌褜",
   "bpla": true,
   "bplaDim": false,
   "uab": false,
   "uabDim": false,
   "fpv": false,
   "rocket": false,
   "rocket_level": false,
   "aviation": false,
   "pvo": false,
   "lat": 54.53063,
   "lon": 36.27
  },
  "芯 芯写懈薪褑芯胁芯|屑芯褋泻芯胁褋泻邪褟 芯斜谢邪褋褌褜": {
   "name": "袨 袨写懈薪褑芯胁芯",
   "region": "袦芯褋泻芯胁褋泻邪褟 芯斜谢邪褋褌褜",
   "bpla": true,
   "bplaDim": false,
   "uab": false,
   "uabDim": false,
   "fpv": false,
   "rocket": false,
   "rocket_level": false,
   "aviation": false,
   "pvo": false,
   "lat": 55.6785359,
   "lon": 37.2679429
  },
  "褋褍褏懈薪懈褔褋泻懈泄 褉邪泄芯薪|泻邪谢褍卸褋泻邪褟 芯斜谢邪褋褌褜": {
   "name": "小褍褏懈薪懈褔褋泻懈泄 褉邪泄芯薪",
   "region": "袣邪谢褍卸褋泻邪褟 芯斜谢邪褋褌褜",
   "bpla": true,
   "bplaDim": false,
   "uab": false,
   "uabDim": false,
   "fpv": false,
   "rocket": false,
   "rocket_level": false,
   "aviation": false,
   "pvo": false,
   "lat": 54.1014365,
   "lon": 35.3397325
  },
  "芯写芯械胁褋泻懈泄 褉邪泄芯薪|褌褍谢褜褋泻邪褟 芯斜谢邪褋褌褜": {
   "name": "袨写芯械胁褋泻懈泄 褉邪泄芯薪",
   "region": "孝褍谢褜褋泻邪褟 芯斜谢邪褋褌褜",
   "bpla": true,
   "bplaDim": false,
   "uab": false,
   "uabDim": false,
   "fpv": false,
   "rocket": false,
   "rocket_level": false,
   "aviation": false,
   "pvo": false,
   "lat": 53.9435034,
   "lon": 36.7278674
  },
  "泻谢懈薪褑褘|斜褉褟薪褋泻邪褟 芯斜谢邪褋褌褜": {
   "name": "袣谢懈薪褑褘",
   "region": "袘褉褟薪褋泻邪褟 芯斜谢邪褋褌褜",
   "bpla": true,
   "bplaDim": true,
   "uab": false,
   "uabDim": false,
   "fpv": false,
   "rocket": false,
   "rocket_level": false,
   "aviation": false,
   "pvo": false,
   "lat": 52.76033,
   "lon": 32.23905
  },
  "泻芯谢芯屑薪邪|屑芯褋泻芯胁褋泻邪褟 芯斜谢邪褋褌褜": {
   "name": "袣芯谢芯屑薪邪",
   "region": "袦芯褋泻芯胁褋泻邪褟 芯斜谢邪褋褌褜",
   "bpla": true,
   "bplaDim": false,
   "uab": false,
   "uabDim": false,
   "fpv": false,
   "rocket": false,
   "rocket_level": false,
   "aviation": false,
   "pvo": true,
   "lat": 55.0938743,
   "lon": 38.7670121
  },
  "褌褍谢邪|褌褍谢褜褋泻邪褟 芯斜谢邪褋褌褜": {
   "name": "孝褍谢邪",
   "region": "孝褍谢褜褋泻邪褟 芯斜谢邪褋褌褜",
   "bpla": true,
   "bplaDim": false,
   "uab": false,
   "uabDim": false,
   "fpv": false,
   "rocket": false,
   "rocket_level": false,
   "aviation": false,
   "pvo": false,
   "lat": 54.19609,
   "lon": 37.61822
  },
  "屑芯褋泻胁邪|屑芯褋泻胁邪": {
   "name": "袦芯褋泻胁邪",
   "region": "袦芯褋泻胁邪",
   "bpla": true,
   "bplaDim": true,
   "uab": false,
   "uabDim": false,
   "fpv": false,
   "rocket": false,
   "rocket_level": false,
   "aviation": false,
   "pvo": false,
   "lat": 55.75204,
   "lon": 37.61781
  },
  "褋褌邪褉芯斜械谢褜褋泻|谢褍谐邪薪褋泻邪褟 薪邪褉芯写薪邪褟 褉械褋锌褍斜谢懈泻邪": {
   "name": "小褌邪褉芯斜械谢褜褋泻",
   "region": "袥褍谐邪薪褋泻邪褟 袧邪褉芯写薪邪褟 袪械褋锌褍斜谢懈泻邪",
   "bpla": true,
   "bplaDim": false,
   "uab": false,
   "uabDim": false,
   "fpv": false,
   "rocket": false,
   "rocket_level": false,
   "aviation": false,
   "pvo": false,
   "lat": 49.282243,
   "lon": 38.897393
  },
  "写芯泻褍褔邪械胁褋泻|写芯薪械褑泻邪褟 薪邪褉芯写薪邪褟 褉械褋锌褍斜谢懈泻邪": {
   "name": "袛芯泻褍褔邪械胁褋泻",
   "region": "袛芯薪械褑泻邪褟 袧邪褉芯写薪邪褟 袪械褋锌褍斜谢懈泻邪",
   "bpla": true,
   "bplaDim": true,
   "uab": false,
   "uabDim": false,
   "fpv": false,
   "rocket": false,
   "rocket_level": false,
   "aviation": false,
   "pvo": false,
   "lat": 47.7522,
   "lon": 37.67761
  },
  "泻邪褉邪褔械胁|斜褉褟薪褋泻邪褟 芯斜谢邪褋褌褜": {
   "name": "袣邪褉邪褔械胁",
   "region": "袘褉褟薪褋泻邪褟 芯斜谢邪褋褌褜",
   "bpla": true,
   "bplaDim": true,
   "uab": false,
   "uabDim": false,
   "fpv": false,
   "rocket": false,
   "rocket_level": false,
   "aviation": false,
   "pvo": false,
   "lat": 53.121594,
   "lon": 34.982805
  },
  "泻懈褉芯胁褋泻懈泄 褉邪泄芯薪|泻邪谢褍卸褋泻邪褟 芯斜谢邪褋褌褜": {
   "name": "袣懈褉芯胁褋泻懈泄 褉邪泄芯薪",
   "region": "袣邪谢褍卸褋泻邪褟 芯斜谢邪褋褌褜",
   "bpla": true,
   "bplaDim": false,
   "uab": false,
   "uabDim": false,
   "fpv": false,
   "rocket": false,
   "rocket_level": false,
   "aviation": false,
   "pvo": false,
   "lat": 54.0704632,
   "lon": 34.2990692
  },
  "斜芯谢褏芯胁褋泻懈泄 褉邪泄芯薪|芯褉谢芯胁褋泻邪褟 芯斜谢邪褋褌褜": {
   "name": "袘芯谢褏芯胁褋泻懈泄 褉邪泄芯薪",
   "region": "袨褉谢芯胁褋泻邪褟 芯斜谢邪褋褌褜",
   "bpla": true,
   "bplaDim": false,
   "uab": false,
   "uabDim": false,
   "fpv": false,
   "rocket": false,
   "rocket_level": false,
   "aviation": false,
   "pvo": false,
   "lat": 53.4361073,
   "lon": 35.9880329
  },
  "写芯褉芯谐芯斜褍卸褋泻懈泄 褉邪泄芯薪|褋屑芯谢械薪褋泻邪褟 芯斜谢邪褋褌褜": {
   "name": "袛芯褉芯谐芯斜褍卸褋泻懈泄 褉邪泄芯薪",
   "region": "小屑芯谢械薪褋泻邪褟 芯斜谢邪褋褌褜",
   "bpla": true,
   "bplaDim": false,
   "uab": false,
   "uabDim": false,
   "fpv": false,
   "rocket": false,
   "rocket_level": false,
   "aviation": false,
   "pvo": false,
   "lat": 54.8478695,
   "lon": 33.323408
  },
  "谐械谢械薪写卸懈泻|泻褉邪褋薪芯写邪褉褋泻懈泄 泻褉邪泄": {
   "name": "袚械谢械薪写卸懈泻",
   "region": "袣褉邪褋薪芯写邪褉褋泻懈泄 泻褉邪泄",
   "bpla": true,
   "bplaDim": true,
   "uab": false,
   "uabDim": false,
   "fpv": false,
   "rocket": false,
   "rocket_level": false,
   "aviation": false,
   "pvo": false,
   "lat": 44.58014,
   "lon": 38.06646
  },
  "胁芯褋泻褉械褋械薪褋泻|屑芯褋泻芯胁褋泻邪褟 芯斜谢邪褋褌褜": {
   "name": "袙芯褋泻褉械褋械薪褋泻",
   "region": "袦芯褋泻芯胁褋泻邪褟 芯斜谢邪褋褌褜",
   "bpla": true,
   "bplaDim": false,
   "uab": false,
   "uabDim": false,
   "fpv": false,
   "rocket": false,
   "rocket_level": false,
   "aviation": false,
   "pvo": true,
   "lat": 55.313,
   "lon": 38.691
  },
  "胁褟蟹械屑褋泻懈泄 褉邪泄芯薪|褋屑芯谢械薪褋泻邪褟 芯斜谢邪褋褌褜": {
   "name": "袙褟蟹械屑褋泻懈泄 褉邪泄芯薪",
   "region": "小屑芯谢械薪褋泻邪褟 芯斜谢邪褋褌褜",
   "bpla": true,
   "bplaDim": false,
   "uab": false,
   "uabDim": false,
   "fpv": false,
   "rocket": false,
   "rocket_level": false,
   "aviation": false,
   "pvo": false,
   "lat": 55.1963662,
   "lon": 34.3310982
  },
  "胁械薪械胁褋泻懈泄 褉邪泄芯薪|褌褍谢褜褋泻邪褟 芯斜谢邪褋褌褜": {
   "name": "袙械薪械胁褋泻懈泄 褉邪泄芯薪",
   "region": "孝褍谢褜褋泻邪褟 芯斜谢邪褋褌褜",
   "bpla": true,
   "bplaDim": false,
   "uab": false,
   "uabDim": false,
   "fpv": false,
   "rocket": false,
   "rocket_level": false,
   "aviation": false,
   "pvo": false,
   "lat": 54.6938317,
   "lon": 38.1602108
  },
  "胁邪谢褍泄泻懈|斜械谢谐芯褉芯写褋泻邪褟 芯斜谢邪褋褌褜": {
   "name": "袙邪谢褍泄泻懈",
   "region": "袘械谢谐芯褉芯写褋泻邪褟 芯斜谢邪褋褌褜",
   "bpla": true,
   "bplaDim": true,
   "uab": false,
   "uabDim": false,
   "fpv": false,
   "rocket": false,
   "rocket_level": false,
   "aviation": false,
   "pvo": false,
   "lat": 50.19661,
   "lon": 38.11674
  },
  "卸褍泻芯胁泻邪|斜褉褟薪褋泻邪褟 芯斜谢邪褋褌褜": {
   "name": "袞褍泻芯胁泻邪",
   "region": "袘褉褟薪褋泻邪褟 芯斜谢邪褋褌褜",
   "bpla": true,
   "bplaDim": true,
   "uab": false,
   "uabDim": false,
   "fpv": false,
   "rocket": false,
   "rocket_level": false,
   "aviation": false,
   "pvo": false,
   "lat": 53.53381,
   "lon": 33.73075
  },
  "芯 薪邪褉芯-褎芯屑懈薪褋泻|屑芯褋泻芯胁褋泻邪褟 芯斜谢邪褋褌褜": {
   "name": "袨 袧邪褉芯-肖芯屑懈薪褋泻",
   "region": "袦芯褋泻芯胁褋泻邪褟 芯斜谢邪褋褌褜",
   "bpla": true,
   "bplaDim": false,
   "uab": false,
   "uabDim": false,
   "fpv": false,
   "rocket": false,
   "rocket_level": false,
   "aviation": false,
   "pvo": false,
   "lat": 55.3878383,
   "lon": 36.7355106
  },
  "褔械褉薪芯屑芯褉褋泻芯械|邪胁褌芯薪芯屑薪邪褟 褉械褋锌褍斜谢懈泻邪 泻褉褘屑": {
   "name": "效械褉薪芯屑芯褉褋泻芯械",
   "region": "袗胁褌芯薪芯屑薪邪褟 袪械褋锌褍斜谢懈泻邪 袣褉褘屑",
   "bpla": true,
   "bplaDim": true,
   "uab": false,
   "uabDim": false,
   "fpv": false,
   "rocket": false,
   "rocket_level": false,
   "aviation": false,
   "pvo": false,
   "lat": 45.50657,
   "lon": 32.69776
  },
  "褝谢械泻褌褉芯褋褌邪谢褜|屑芯褋泻芯胁褋泻邪褟 芯斜谢邪褋褌褜": {
   "name": "协谢械泻褌褉芯褋褌邪谢褜",
   "region": "袦芯褋泻芯胁褋泻邪褟 芯斜谢邪褋褌褜",
   "bpla": true,
   "bplaDim": true,
   "uab": false,
   "uabDim": false,
   "fpv": false,
   "rocket": false,
   "rocket_level": false,
   "aviation": false,
   "pvo": false,
   "lat": 55.78647,
   "lon": 38.45713
  },
  "锌邪胁谢芯胁褋泻邪褟|泻褉邪褋薪芯写邪褉褋泻懈泄 泻褉邪泄": {
   "name": "袩邪胁谢芯胁褋泻邪褟",
   "region": "袣褉邪褋薪芯写邪褉褋泻懈泄 泻褉邪泄",
   "bpla": true,
   "bplaDim": true,
   "uab": false,
   "uabDim": false,
   "fpv": false,
   "rocket": false,
   "rocket_level": false,
   "aviation": false,
   "pvo": false,
   "lat": 46.13903,
   "lon": 39.7862
  },
  "泻懈褉卸邪褔褋泻懈泄 褉邪泄芯薪|胁谢邪写懈屑懈褉褋泻邪褟 芯斜谢邪褋褌褜": {
   "name": "袣懈褉卸邪褔褋泻懈泄 褉邪泄芯薪",
   "region": "袙谢邪写懈屑懈褉褋泻邪褟 芯斜谢邪褋褌褜",
   "bpla": true,
   "bplaDim": false,
   "uab": false,
   "uabDim": false,
   "fpv": false,
   "rocket": false,
   "rocket_level": false,
   "aviation": false,
   "pvo": false,
   "lat": 56.2868075,
   "lon": 38.791823
  },
  "邪薪邪锌邪|泻褉邪褋薪芯写邪褉褋泻懈泄 泻褉邪泄": {
   "name": "袗薪邪锌邪",
   "region": "袣褉邪褋薪芯写邪褉褋泻懈泄 泻褉邪泄",
   "bpla": true,
   "bplaDim": false,
   "uab": false,
   "uabDim": false,
   "fpv": false,
   "rocket": false,
   "rocket_level": false,
   "aviation": false,
   "pvo": false,
   "lat": 44.89497,
   "lon": 37.31623
  },
  "泻褉褘屑褋泻|泻褉邪褋薪芯写邪褉褋泻懈泄 泻褉邪泄": {
   "name": "袣褉褘屑褋泻",
   "region": "袣褉邪褋薪芯写邪褉褋泻懈泄 泻褉邪泄",
   "bpla": true,
   "bplaDim": true,
   "uab": false,
   "uabDim": false,
   "fpv": false,
   "rocket": false,
   "rocket_level": false,
   "aviation": false,
   "pvo": false,
   "lat": 44.92625,
   "lon": 37.99025
  },
  "邪斜懈薪褋泻|泻褉邪褋薪芯写邪褉褋泻懈泄 泻褉邪泄": {
   "name": "袗斜懈薪褋泻",
   "region": "袣褉邪褋薪芯写邪褉褋泻懈泄 泻褉邪泄",
   "bpla": true,
   "bplaDim": true,
   "uab": false,
   "uabDim": false,
   "fpv": false,
   "rocket": false,
   "rocket_level": false,
   "aviation": false,
   "pvo": false,
   "lat": 44.87058,
   "lon": 38.15759
  },
  "懈谢褜褋泻懈泄|泻褉邪褋薪芯写邪褉褋泻懈泄 泻褉邪泄": {
   "name": "袠谢褜褋泻懈泄",
   "region": "袣褉邪褋薪芯写邪褉褋泻懈泄 泻褉邪泄",
   "bpla": true,
   "bplaDim": true,
   "uab": false,
   "uabDim": false,
   "fpv": false,
   "rocket": false,
   "rocket_level": false,
   "aviation": false,
   "pvo": false,
   "lat": 44.8458544,
   "lon": 38.5608255
  },
  "褋械胁械褉薪芯械|写芯薪械褑泻邪褟 薪邪褉芯写薪邪褟 褉械褋锌褍斜谢懈泻邪": {
   "name": "小械胁械褉薪芯械",
   "region": "袛芯薪械褑泻邪褟 袧邪褉芯写薪邪褟 袪械褋锌褍斜谢懈泻邪",
   "bpla": true,
   "bplaDim": true,
   "uab": false,
   "uabDim": false,
   "fpv": false,
   "rocket": false,
   "rocket_level": false,
   "aviation": false,
   "pvo": false,
   "lat": 48.39785,
   "lon": 37.90935
  },
  "屑械谢懈褌芯锌芯谢褜|蟹邪锌芯褉芯卸褋泻邪褟 芯斜谢邪褋褌褜": {
   "name": "袦械谢懈褌芯锌芯谢褜",
   "region": "袟邪锌芯褉芯卸褋泻邪褟 芯斜谢邪褋褌褜",
   "bpla": true,
   "bplaDim": false,
   "uab": false,
   "uabDim": false,
   "fpv": false,
   "rocket": false,
   "rocket_level": false,
   "aviation": false,
   "pvo": false,
   "lat": 46.84735,
   "lon": 35.38196
  },
  "褋械褉械斜褉褟薪褘械 锌褉褍写褘|屑芯褋泻芯胁褋泻邪褟 芯斜谢邪褋褌褜": {
   "name": "小械褉械斜褉褟薪褘械 锌褉褍写褘",
   "region": "袦芯褋泻芯胁褋泻邪褟 芯斜谢邪褋褌褜",
   "bpla": true,
   "bplaDim": false,
   "uab": false,
   "uabDim": false,
   "fpv": false,
   "rocket": false,
   "rocket_level": false,
   "aviation": false,
   "pvo": false,
   "lat": 54.4679803,
   "lon": 38.7223679
  },
  "褔械褉薪懈谐芯胁褋泻芯泄 芯斜谢邪褋褌懈": {
   "name": "效械褉薪懈谐芯胁褋泻芯泄 芯斜谢邪褋褌懈",
   "region": null,
   "bpla": false,
   "bplaDim": false,
   "uab": false,
   "uabDim": false,
   "fpv": false,
   "rocket": false,
   "rocket_level": false,
   "aviation": false,
   "pvo": false,
   "lat": 51.491148,
   "lon": 31.293199
  },
  "薪邪胁谢褟|斜褉褟薪褋泻邪褟 芯斜谢邪褋褌褜": {
   "name": "袧邪胁谢褟",
   "region": "袘褉褟薪褋泻邪褟 芯斜谢邪褋褌褜",
   "bpla": true,
   "bplaDim": true,
   "uab": false,
   "uabDim": false,
   "fpv": false,
   "rocket": false,
   "rocket_level": false,
   "aviation": false,
   "pvo": false,
   "lat": 52.82544,
   "lon": 34.4996
  },
  "斜褉褟薪褋泻|斜褉褟薪褋泻邪褟 芯斜谢邪褋褌褜": {
   "name": "袘褉褟薪褋泻",
   "region": "袘褉褟薪褋泻邪褟 芯斜谢邪褋褌褜",
   "bpla": true,
   "bplaDim": true,
   "uab": false,
   "uabDim": false,
   "fpv": false,
   "rocket": false,
   "rocket_level": false,
   "aviation": false,
   "pvo": false,
   "lat": 53.27096,
   "lon": 34.32143
  },
  "写芯薪械褑泻|写芯薪械褑泻邪褟 薪邪褉芯写薪邪褟 褉械褋锌褍斜谢懈泻邪": {
   "name": "袛芯薪械褑泻",
   "region": "袛芯薪械褑泻邪褟 袧邪褉芯写薪邪褟 袪械褋锌褍斜谢懈泻邪",
   "bpla": true,
   "bplaDim": true,
   "uab": false,
   "uabDim": false,
   "fpv": false,
   "rocket": false,
   "rocket_level": false,
   "aviation": false,
   "pvo": false,
   "lat": 48.023,
   "lon": 37.80224
  },
  "锌褉懈屑芯褉褋泻芯-邪褏褌邪褉褋泻|泻褉邪褋薪芯写邪褉褋泻懈泄 泻褉邪泄": {
   "name": "袩褉懈屑芯褉褋泻芯-袗褏褌邪褉褋泻",
   "region": "袣褉邪褋薪芯写邪褉褋泻懈泄 泻褉邪泄",
   "bpla": true,
   "bplaDim": true,
   "uab": false,
   "uabDim": false,
   "fpv": false,
   "rocket": false,
   "rocket_level": false,
   "aviation": false,
   "pvo": false,
   "lat": 46.04847,
   "lon": 38.17899
  },
  "懈胁邪薪芯胁泻邪|谢褍谐邪薪褋泻邪褟 薪邪褉芯写薪邪褟 褉械褋锌褍斜谢懈泻邪": {
   "name": "袠胁邪薪芯胁泻邪",
   "region": "袥褍谐邪薪褋泻邪褟 袧邪褉芯写薪邪褟 袪械褋锌褍斜谢懈泻邪",
   "bpla": true,
   "bplaDim": true,
   "uab": false,
   "uabDim": false,
   "fpv": false,
   "rocket": false,
   "rocket_level": false,
   "aviation": false,
   "pvo": false,
   "lat": 48.24306,
   "lon": 38.945
  },
  "卸褍泻芯胁褋泻懈泄|屑芯褋泻芯胁褋泻邪褟 芯斜谢邪褋褌褜": {
   "name": "袞褍泻芯胁褋泻懈泄",
   "region": "袦芯褋泻芯胁褋泻邪褟 芯斜谢邪褋褌褜",
   "bpla": true,
   "bplaDim": true,
   "uab": false,
   "uabDim": false,
   "fpv": false,
   "rocket": false,
   "rocket_level": false,
   "aviation": false,
   "pvo": false,
   "lat": 55.59528,
   "lon": 38.12028
  },
  "屑邪泻械械胁泻邪|写芯薪械褑泻邪褟 薪邪褉芯写薪邪褟 褉械褋锌褍斜谢懈泻邪": {
   "name": "袦邪泻械械胁泻邪",
   "region": "袛芯薪械褑泻邪褟 袧邪褉芯写薪邪褟 袪械褋锌褍斜谢懈泻邪",
   "bpla": true,
   "bplaDim": true,
   "uab": false,
   "uabDim": false,
   "fpv": false,
   "rocket": false,
   "rocket_level": false,
   "aviation": false,
   "pvo": false,
   "lat": 48.04782,
   "lon": 37.92576
  },
  "胁械谢懈泻邪褟 斜械谢芯蟹械褉泻邪|蟹邪锌芯褉芯卸褋泻邪褟 芯斜谢邪褋褌褜": {
   "name": "袙械谢懈泻邪褟 袘械谢芯蟹械褉泻邪",
   "region": "袟邪锌芯褉芯卸褋泻邪褟 芯斜谢邪褋褌褜",
   "bpla": true,
   "bplaDim": true,
   "uab": false,
   "uabDim": false,
   "fpv": false,
   "rocket": false,
   "rocket_level": false,
   "aviation": false,
   "pvo": false,
   "lat": 47.27572,
   "lon": 34.68457
  },
  "芯 斜褉芯薪薪懈褑褘|屑芯褋泻芯胁褋泻邪褟 芯斜谢邪褋褌褜": {
   "name": "袨 袘褉芯薪薪懈褑褘",
   "region": "袦芯褋泻芯胁褋泻邪褟 芯斜谢邪褋褌褜",
   "bpla": true,
   "bplaDim": false,
   "uab": false,
   "uabDim": false,
   "fpv": false,
   "rocket": false,
   "rocket_level": false,
   "aviation": false,
   "pvo": true,
   "lat": 55.4157463,
   "lon": 38.2775252
  },
  "褋芯褔懈|泻褉邪褋薪芯写邪褉褋泻懈泄 泻褉邪泄": {
   "name": "小芯褔懈",
   "region": "袣褉邪褋薪芯写邪褉褋泻懈泄 泻褉邪泄",
   "bpla": true,
   "bplaDim": true,
   "uab": false,
   "uabDim": false,
   "fpv": false,
   "rocket": false,
   "rocket_level": false,
   "aviation": false,
   "pvo": false,
   "lat": 43.59699,
   "lon": 39.72477
  },
  "芯 锌芯写芯谢褜褋泻|屑芯褋泻芯胁褋泻邪褟 芯斜谢邪褋褌褜": {
   "name": "袨 袩芯写芯谢褜褋泻",
   "region": "袦芯褋泻芯胁褋泻邪褟 芯斜谢邪褋褌褜",
   "bpla": true,
   "bplaDim": false,
   "uab": false,
   "uabDim": false,
   "fpv": false,
   "rocket": false,
   "rocket_level": false,
   "aviation": false,
   "pvo": false,
   "lat": 55.3524887,
   "lon": 37.4439535
  },
  "蟹邪芯泻褋泻懈泄 褉邪泄芯薪|褌褍谢褜褋泻邪褟 芯斜谢邪褋褌褜": {
   "name": "袟邪芯泻褋泻懈泄 褉邪泄芯薪",
   "region": "孝褍谢褜褋泻邪褟 芯斜谢邪褋褌褜",
   "bpla": true,
   "bplaDim": false,
   "uab": false,
   "uabDim": false,
   "fpv": false,
   "rocket": false,
   "rocket_level": false,
   "aviation": false,
   "pvo": false,
   "lat": 54.6684441,
   "lon": 37.4726552
  },
  "邪褉屑邪胁懈褉|泻褉邪褋薪芯写邪褉褋泻懈泄 泻褉邪泄": {
   "name": "袗褉屑邪胁懈褉",
   "region": "袣褉邪褋薪芯写邪褉褋泻懈泄 泻褉邪泄",
   "bpla": true,
   "bplaDim": true,
   "uab": false,
   "uabDim": false,
   "fpv": false,
   "rocket": false,
   "rocket_level": false,
   "aviation": false,
   "pvo": false,
   "lat": 44.99849,
   "lon": 41.11472
  },
  "谢芯褌芯褕懈薪芯|屑芯褋泻芯胁褋泻邪褟 芯斜谢邪褋褌褜": {
   "name": "袥芯褌芯褕懈薪芯",
   "region": "袦芯褋泻芯胁褋泻邪褟 芯斜谢邪褋褌褜",
   "bpla": true,
   "bplaDim": false,
   "uab": false,
   "uabDim": false,
   "fpv": false,
   "rocket": false,
   "rocket_level": false,
   "aviation": false,
   "pvo": false,
   "lat": 56.2269944,
   "lon": 35.6413298
  },
  "泻芯薪褋褌邪薪褌懈薪芯胁泻邪|写芯薪械褑泻邪褟 薪邪褉芯写薪邪褟 褉械褋锌褍斜谢懈泻邪": {
   "name": "袣芯薪褋褌邪薪褌懈薪芯胁泻邪",
   "region": "袛芯薪械褑泻邪褟 袧邪褉芯写薪邪褟 袪械褋锌褍斜谢懈泻邪",
   "bpla": false,
   "bplaDim": false,
   "uab": true,
   "uabDim": true,
   "fpv": false,
   "rocket": false,
   "rocket_level": false,
   "aviation": false,
   "pvo": false,
   "lat": 48.52728,
   "lon": 37.70594
  },
  "芯 褋褌褍锌懈薪芯|屑芯褋泻芯胁褋泻邪褟 芯斜谢邪褋褌褜": {
   "name": "袨 小褌褍锌懈薪芯",
   "region": "袦芯褋泻芯胁褋泻邪褟 芯斜谢邪褋褌褜",
   "bpla": true,
   "bplaDim": false,
   "uab": false,
   "uabDim": false,
   "fpv": false,
   "rocket": false,
   "rocket_level": false,
   "aviation": false,
   "pvo": false,
   "lat": 54.8961714,
   "lon": 38.0740681
  },
  "褏邪褉褑褘蟹褋泻|写芯薪械褑泻邪褟 薪邪褉芯写薪邪褟 褉械褋锌褍斜谢懈泻邪": {
   "name": "啸邪褉褑褘蟹褋泻",
   "region": "袛芯薪械褑泻邪褟 袧邪褉芯写薪邪褟 袪械褋锌褍斜谢懈泻邪",
   "bpla": true,
   "bplaDim": true,
   "uab": false,
   "uabDim": false,
   "fpv": false,
   "rocket": false,
   "rocket_level": false,
   "aviation": false,
   "pvo": false,
   "lat": 48.04277,
   "lon": 38.14025
  },
  "褌褍邪锌褋械|泻褉邪褋薪芯写邪褉褋泻懈泄 泻褉邪泄": {
   "name": "孝褍邪锌褋械",
   "region": "袣褉邪褋薪芯写邪褉褋泻懈泄 泻褉邪泄",
   "bpla": true,
   "bplaDim": true,
   "uab": false,
   "uabDim": false,
   "fpv": false,
   "rocket": false,
   "rocket_level": false,
   "aviation": false,
   "pvo": false,
   "lat": 44.0984747,
   "lon": 39.0718875
  },
  "褍谐褉邪薪褋泻懈泄 褉邪泄芯薪|褋屑芯谢械薪褋泻邪褟 芯斜谢邪褋褌褜": {
   "name": "校谐褉邪薪褋泻懈泄 褉邪泄芯薪",
   "region": "小屑芯谢械薪褋泻邪褟 芯斜谢邪褋褌褜",
   "bpla": true,
   "bplaDim": false,
   "uab": false,
   "uabDim": false,
   "fpv": false,
   "rocket": false,
   "rocket_level": false,
   "aviation": false,
   "pvo": false,
   "lat": 54.7904822,
   "lon": 34.3736036
  },
  "芯 写芯屑芯写械写芯胁芯|屑芯褋泻芯胁褋泻邪褟 芯斜谢邪褋褌褜": {
   "name": "袨 袛芯屑芯写械写芯胁芯",
   "region": "袦芯褋泻芯胁褋泻邪褟 芯斜谢邪褋褌褜",
   "bpla": true,
   "bplaDim": false,
   "uab": false,
   "uabDim": false,
   "fpv": false,
   "rocket": false,
   "rocket_level": false,
   "aviation": false,
   "pvo": true,
   "lat": 55.4546771,
   "lon": 37.7647
  },
  "褋械谢褜褑芯|斜褉褟薪褋泻邪褟 芯斜谢邪褋褌褜": {
   "name": "小械谢褜褑芯",
   "region": "袘褉褟薪褋泻邪褟 芯斜谢邪褋褌褜",
   "bpla": true,
   "bplaDim": true,
   "uab": false,
   "uabDim": false,
   "fpv": false,
   "rocket": false,
   "rocket_level": false,
   "aviation": false,
   "pvo": false,
   "lat": 53.36831,
   "lon": 34.10328
  },
  "褎械褉蟹懈泻芯胁褋泻懈泄 褉邪泄芯薪|泻邪谢褍卸褋泻邪褟 芯斜谢邪褋褌褜": {
   "name": "肖械褉蟹懈泻芯胁褋泻懈泄 褉邪泄芯薪",
   "region": "袣邪谢褍卸褋泻邪褟 芯斜谢邪褋褌褜",
   "bpla": true,
   "bplaDim": false,
   "uab": false,
   "uabDim": false,
   "fpv": false,
   "rocket": false,
   "rocket_level": false,
   "aviation": false,
   "pvo": false,
   "lat": 54.5202807,
   "lon": 36.7544805
  },
  "褌械屑褉褞泻|泻褉邪褋薪芯写邪褉褋泻懈泄 泻褉邪泄": {
   "name": "孝械屑褉褞泻",
   "region": "袣褉邪褋薪芯写邪褉褋泻懈泄 泻褉邪泄",
   "bpla": true,
   "bplaDim": true,
   "uab": false,
   "uabDim": false,
   "fpv": false,
   "rocket": false,
   "rocket_level": false,
   "aviation": false,
   "pvo": false,
   "lat": 45.26885,
   "lon": 37.39752
  },
  "锌褉懈邪蟹芯胁褜械|泻褉邪褋薪芯写邪褉褋泻懈泄 泻褉邪泄": {
   "name": "袩褉懈邪蟹芯胁褜械",
   "region": "袣褉邪褋薪芯写邪褉褋泻懈泄 泻褉邪泄",
   "bpla": true,
   "bplaDim": true,
   "uab": false,
   "uabDim": false,
   "fpv": false,
   "rocket": false,
   "rocket_level": false,
   "aviation": false,
   "pvo": false,
   "lat": 46.153002,
   "lon": 37.495698
  }
 },
 "timestamp": 1783873280.83107,
 "fetched_at": "2026-07-12T16:21:20Z"
}