{
 "cities": {
  "горловка|донецкая народная республика": {
   "name": "Горловка",
   "region": "Донецкая Народная Республика",
   "bpla": true,
   "bplaDim": true,
   "uab": false,
   "uabDim": false,
   "fpv": false,
   "rocket": false,
   "rocket_level": false,
   "aviation": false,
   "pvo": false,
   "lat": 48.29986,
   "lon": 38.01709
  },
  "валуйского района|белгородская область": {
   "name": "Валуйского района",
   "region": "Белгородская область",
   "bpla": true,
   "bplaDim": true,
   "uab": false,
   "uabDim": false,
   "fpv": false,
   "rocket": false,
   "rocket_level": false,
   "aviation": false,
   "pvo": false,
   "lat": 50.211038,
   "lon": 38.0997012
  },
  "славянск-на-кубани|краснодарский край": {
   "name": "Славянск-на-Кубани",
   "region": "Краснодарский край",
   "bpla": true,
   "bplaDim": false,
   "uab": false,
   "uabDim": false,
   "fpv": false,
   "rocket": false,
   "rocket_level": false,
   "aviation": false,
   "pvo": false,
   "lat": 45.25145,
   "lon": 38.12129
  },
  "причерноморье|краснодарский край": {
   "name": "Причерноморье",
   "region": "Краснодарский край",
   "bpla": false,
   "bplaDim": false,
   "uab": false,
   "uabDim": false,
   "fpv": false,
   "rocket": true,
   "rocket_level": true,
   "aviation": false,
   "pvo": false,
   "lat": 44.157515,
   "lon": 37.831548
  },
  "токмак|запорожская область": {
   "name": "Токмак",
   "region": "Запорожская область",
   "bpla": true,
   "bplaDim": true,
   "uab": false,
   "uabDim": false,
   "fpv": false,
   "rocket": false,
   "rocket_level": false,
   "aviation": false,
   "pvo": false,
   "lat": 47.25554,
   "lon": 35.70836
  },
  "авдеевка|донецкая народная республика": {
   "name": "Авдеевка",
   "region": "Донецкая Народная Республика",
   "bpla": true,
   "bplaDim": true,
   "uab": false,
   "uabDim": false,
   "fpv": false,
   "rocket": false,
   "rocket_level": false,
   "aviation": false,
   "pvo": false,
   "lat": 48.14019,
   "lon": 37.75008
  },
  "харцызск|донецкая народная республика": {
   "name": "Харцызск",
   "region": "Донецкая Народная Республика",
   "bpla": true,
   "bplaDim": true,
   "uab": false,
   "uabDim": false,
   "fpv": false,
   "rocket": false,
   "rocket_level": false,
   "aviation": false,
   "pvo": false,
   "lat": 48.04277,
   "lon": 38.14025
  },
  "керченский полуостров|автономная республика крым": {
   "name": "Керченский полуостров",
   "region": "Автономная Республика Крым",
   "bpla": true,
   "bplaDim": true,
   "uab": false,
   "uabDim": false,
   "fpv": false,
   "rocket": false,
   "rocket_level": false,
   "aviation": false,
   "pvo": false,
   "lat": 45.250954,
   "lon": 36.140668
  },
  "счастье|луганская народная республика": {
   "name": "Счастье",
   "region": "Луганская Народная Республика",
   "bpla": true,
   "bplaDim": true,
   "uab": false,
   "uabDim": false,
   "fpv": false,
   "rocket": false,
   "rocket_level": false,
   "aviation": false,
   "pvo": false,
   "lat": 48.73784,
   "lon": 39.23047
  },
  "туапсе|краснодарский край": {
   "name": "Туапсе",
   "region": "Краснодарский край",
   "bpla": true,
   "bplaDim": true,
   "uab": false,
   "uabDim": false,
   "fpv": false,
   "rocket": false,
   "rocket_level": false,
   "aviation": false,
   "pvo": false,
   "lat": 44.0984747,
   "lon": 39.0718875
  },
  "селидово|донецкая народная республика": {
   "name": "Селидово",
   "region": "Донецкая Народная Республика",
   "bpla": false,
   "bplaDim": false,
   "uab": false,
   "uabDim": false,
   "fpv": false,
   "rocket": true,
   "rocket_level": true,
   "aviation": false,
   "pvo": false,
   "lat": 48.1465,
   "lon": 37.3022
  },
  "таманский полуостров|краснодарский край": {
   "name": "Таманский полуостров",
   "region": "Краснодарский край",
   "bpla": true,
   "bplaDim": true,
   "uab": false,
   "uabDim": false,
   "fpv": false,
   "rocket": false,
   "rocket_level": false,
   "aviation": false,
   "pvo": false,
   "lat": 45.228747,
   "lon": 37.172906
  },
  "бердянск|запорожская область": {
   "name": "Бердянск",
   "region": "Запорожская область",
   "bpla": true,
   "bplaDim": false,
   "uab": false,
   "uabDim": false,
   "fpv": false,
   "rocket": false,
   "rocket_level": false,
   "aviation": false,
   "pvo": false,
   "lat": 46.75578,
   "lon": 36.78815
  },
  "приазовское|запорожская область": {
   "name": "Приазовское",
   "region": "Запорожская область",
   "bpla": true,
   "bplaDim": true,
   "uab": false,
   "uabDim": false,
   "fpv": false,
   "rocket": false,
   "rocket_level": false,
   "aviation": false,
   "pvo": false,
   "lat": 46.73123,
   "lon": 35.64082
  },
  "макеевка|донецкая народная республика": {
   "name": "Макеевка",
   "region": "Донецкая Народная Республика",
   "bpla": true,
   "bplaDim": false,
   "uab": false,
   "uabDim": false,
   "fpv": false,
   "rocket": false,
   "rocket_level": false,
   "aviation": false,
   "pvo": false,
   "lat": 48.04782,
   "lon": 37.92576
  },
  "великая новосёлка|донецкая народная республика": {
   "name": "Великая Новосёлка",
   "region": "Донецкая Народная Республика",
   "bpla": true,
   "bplaDim": true,
   "uab": false,
   "uabDim": false,
   "fpv": false,
   "rocket": true,
   "rocket_level": true,
   "aviation": false,
   "pvo": false,
   "lat": 47.84281,
   "lon": 36.83627
  },
  "приморск|запорожская область": {
   "name": "Приморск",
   "region": "Запорожская область",
   "bpla": true,
   "bplaDim": false,
   "uab": false,
   "uabDim": false,
   "fpv": false,
   "rocket": false,
   "rocket_level": false,
   "aviation": false,
   "pvo": false,
   "lat": 46.73415,
   "lon": 36.34599
  },
  "абинск|краснодарский край": {
   "name": "Абинск",
   "region": "Краснодарский край",
   "bpla": true,
   "bplaDim": true,
   "uab": false,
   "uabDim": false,
   "fpv": false,
   "rocket": false,
   "rocket_level": false,
   "aviation": false,
   "pvo": false,
   "lat": 44.87058,
   "lon": 38.15759
  },
  "красноармейск|донецкая народная республика": {
   "name": "Красноармейск",
   "region": "Донецкая Народная Республика",
   "bpla": false,
   "bplaDim": false,
   "uab": false,
   "uabDim": false,
   "fpv": false,
   "rocket": true,
   "rocket_level": true,
   "aviation": false,
   "pvo": false,
   "lat": 48.280351,
   "lon": 37.175601
  },
  "луганск|луганская народная республика": {
   "name": "Луганск",
   "region": "Луганская Народная Республика",
   "bpla": true,
   "bplaDim": true,
   "uab": false,
   "uabDim": false,
   "fpv": false,
   "rocket": false,
   "rocket_level": false,
   "aviation": false,
   "pvo": false,
   "lat": 48.56814,
   "lon": 39.30553
  },
  "константиновка|донецкая народная республика": {
   "name": "Константиновка",
   "region": "Донецкая Народная Республика",
   "bpla": false,
   "bplaDim": false,
   "uab": true,
   "uabDim": true,
   "fpv": false,
   "rocket": true,
   "rocket_level": true,
   "aviation": false,
   "pvo": false,
   "lat": 48.52728,
   "lon": 37.70594
  },
  "ейск|краснодарский край": {
   "name": "Ейск",
   "region": "Краснодарский край",
   "bpla": true,
   "bplaDim": true,
   "uab": false,
   "uabDim": false,
   "fpv": false,
   "rocket": false,
   "rocket_level": false,
   "aviation": false,
   "pvo": false,
   "lat": 46.69263,
   "lon": 38.27907
  },
  "акимовка|запорожская область": {
   "name": "Акимовка",
   "region": "Запорожская область",
   "bpla": true,
   "bplaDim": true,
   "uab": false,
   "uabDim": false,
   "fpv": false,
   "rocket": false,
   "rocket_level": false,
   "aviation": false,
   "pvo": false,
   "lat": 46.7011,
   "lon": 35.16334
  },
  "керчь|автономная республика крым": {
   "name": "Керчь",
   "region": "Автономная Республика Крым",
   "bpla": true,
   "bplaDim": true,
   "uab": false,
   "uabDim": false,
   "fpv": false,
   "rocket": false,
   "rocket_level": false,
   "aviation": false,
   "pvo": false,
   "lat": 45.35675,
   "lon": 36.47542
  },
  "республика крым|автономная республика крым": {
   "name": "Республика Крым",
   "region": "Автономная Республика Крым",
   "bpla": true,
   "bplaDim": true,
   "uab": false,
   "uabDim": false,
   "fpv": false,
   "rocket": true,
   "rocket_level": true,
   "aviation": false,
   "pvo": false,
   "lat": 44.948237,
   "lon": 34.100318
  },
  "трасса|брянская область": {
   "name": "трасса",
   "region": "Брянская область",
   "bpla": true,
   "bplaDim": true,
   "uab": false,
   "uabDim": false,
   "fpv": false,
   "rocket": false,
   "rocket_level": false,
   "aviation": false,
   "pvo": false,
   "lat": 53.395264,
   "lon": 34.3207189
  },
  "много|ростовская область": {
   "name": "Много",
   "region": "Ростовская область",
   "bpla": true,
   "bplaDim": true,
   "uab": false,
   "uabDim": false,
   "fpv": false,
   "rocket": false,
   "rocket_level": false,
   "aviation": false,
   "pvo": false,
   "lat": 47.1379221,
   "lon": 39.7174758
  },
  "донецк|донецкая народная республика": {
   "name": "Донецк",
   "region": "Донецкая Народная Республика",
   "bpla": true,
   "bplaDim": false,
   "uab": false,
   "uabDim": false,
   "fpv": true,
   "rocket": false,
   "rocket_level": false,
   "aviation": false,
   "pvo": false,
   "lat": 48.023,
   "lon": 37.80224
  },
  "волна|краснодарский край": {
   "name": "Волна",
   "region": "Краснодарский край",
   "bpla": true,
   "bplaDim": true,
   "uab": false,
   "uabDim": false,
   "fpv": false,
   "rocket": false,
   "rocket_level": false,
   "aviation": false,
   "pvo": false,
   "lat": 45.1265845,
   "lon": 36.7105844
  },
  "уразово|белгородская область": {
   "name": "Уразово",
   "region": "Белгородская область",
   "bpla": true,
   "bplaDim": true,
   "uab": false,
   "uabDim": false,
   "fpv": false,
   "rocket": false,
   "rocket_level": false,
   "aviation": false,
   "pvo": false,
   "lat": 50.0836,
   "lon": 38.0395
  },
  "новоайдар|луганская народная республика": {
   "name": "Новоайдар",
   "region": "Луганская Народная Республика",
   "bpla": true,
   "bplaDim": true,
   "uab": false,
   "uabDim": false,
   "fpv": false,
   "rocket": false,
   "rocket_level": false,
   "aviation": false,
   "pvo": false,
   "lat": 48.96402,
   "lon": 39.00559
  },
  "рыльск|курская область": {
   "name": "Рыльск",
   "region": "Курская область",
   "bpla": true,
   "bplaDim": true,
   "uab": false,
   "uabDim": false,
   "fpv": false,
   "rocket": false,
   "rocket_level": false,
   "aviation": false,
   "pvo": false,
   "lat": 51.570538,
   "lon": 34.683506
  },
  "каменка-днепровская|запорожская область": {
   "name": "Каменка-Днепровская",
   "region": "Запорожская область",
   "bpla": true,
   "bplaDim": true,
   "uab": false,
   "uabDim": false,
   "fpv": false,
   "rocket": false,
   "rocket_level": false,
   "aviation": false,
   "pvo": false,
   "lat": 47.49629,
   "lon": 34.41026
  },
  "крымск|краснодарский край": {
   "name": "Крымск",
   "region": "Краснодарский край",
   "bpla": true,
   "bplaDim": true,
   "uab": false,
   "uabDim": false,
   "fpv": false,
   "rocket": false,
   "rocket_level": false,
   "aviation": false,
   "pvo": false,
   "lat": 44.92625,
   "lon": 37.99025
  },
  "феодосия|автономная республика крым": {
   "name": "Феодосия",
   "region": "Автономная Республика Крым",
   "bpla": true,
   "bplaDim": true,
   "uab": false,
   "uabDim": false,
   "fpv": false,
   "rocket": false,
   "rocket_level": false,
   "aviation": false,
   "pvo": false,
   "lat": 45.026654,
   "lon": 35.383911
  },
  "мариуполь|донецкая народная республика": {
   "name": "Мариуполь",
   "region": "Донецкая Народная Республика",
   "bpla": true,
   "bplaDim": true,
   "uab": false,
   "uabDim": false,
   "fpv": false,
   "rocket": false,
   "rocket_level": false,
   "aviation": false,
   "pvo": false,
   "lat": 47.09514,
   "lon": 37.54131
  },
  "тамань|краснодарский край": {
   "name": "Тамань",
   "region": "Краснодарский край",
   "bpla": true,
   "bplaDim": true,
   "uab": false,
   "uabDim": false,
   "fpv": false,
   "rocket": false,
   "rocket_level": false,
   "aviation": false,
   "pvo": false,
   "lat": 45.2158646,
   "lon": 36.7191326
  },
  "северодонецк|луганская народная республика": {
   "name": "Северодонецк",
   "region": "Луганская Народная Республика",
   "bpla": false,
   "bplaDim": false,
   "uab": false,
   "uabDim": false,
   "fpv": false,
   "rocket": true,
   "rocket_level": true,
   "aviation": false,
   "pvo": false,
   "lat": 48.94628,
   "lon": 38.48624
  },
  "адлер|краснодарский край": {
   "name": "Адлер",
   "region": "Краснодарский край",
   "bpla": true,
   "bplaDim": true,
   "uab": false,
   "uabDim": false,
   "fpv": false,
   "rocket": false,
   "rocket_level": false,
   "aviation": false,
   "pvo": false,
   "lat": 43.42896,
   "lon": 39.92391
  },
  "рубежное|луганская народная республика": {
   "name": "Рубежное",
   "region": "Луганская Народная Республика",
   "bpla": true,
   "bplaDim": true,
   "uab": false,
   "uabDim": false,
   "fpv": false,
   "rocket": false,
   "rocket_level": false,
   "aviation": false,
   "pvo": false,
   "lat": 49.00606,
   "lon": 38.38119
  },
  "таганрог|ростовская область": {
   "name": "Таганрог",
   "region": "Ростовская область",
   "bpla": true,
   "bplaDim": true,
   "uab": false,
   "uabDim": false,
   "fpv": false,
   "rocket": false,
   "rocket_level": false,
   "aviation": false,
   "pvo": false,
   "lat": 47.23627,
   "lon": 38.9053
  },
  "таманский залив|краснодарский край": {
   "name": "Таманский залив",
   "region": "Краснодарский край",
   "bpla": true,
   "bplaDim": true,
   "uab": false,
   "uabDim": false,
   "fpv": false,
   "rocket": false,
   "rocket_level": false,
   "aviation": false,
   "pvo": false,
   "lat": 45.312491,
   "lon": 36.9083569
  },
  "приморско-ахтарск|краснодарский край": {
   "name": "Приморско-Ахтарск",
   "region": "Краснодарский край",
   "bpla": true,
   "bplaDim": true,
   "uab": false,
   "uabDim": false,
   "fpv": false,
   "rocket": false,
   "rocket_level": false,
   "aviation": false,
   "pvo": false,
   "lat": 46.04847,
   "lon": 38.17899
  },
  "ильский|краснодарский край": {
   "name": "Ильский",
   "region": "Краснодарский край",
   "bpla": true,
   "bplaDim": false,
   "uab": false,
   "uabDim": false,
   "fpv": false,
   "rocket": false,
   "rocket_level": false,
   "aviation": false,
   "pvo": false,
   "lat": 44.8458544,
   "lon": 38.5608255
  },
  "почеп|брянская область": {
   "name": "Почеп",
   "region": "Брянская область",
   "bpla": true,
   "bplaDim": true,
   "uab": false,
   "uabDim": false,
   "fpv": false,
   "rocket": false,
   "rocket_level": false,
   "aviation": false,
   "pvo": false,
   "lat": 52.9331,
   "lon": 33.44702
  },
  "иловайск|донецкая народная республика": {
   "name": "Иловайск",
   "region": "Донецкая Народная Республика",
   "bpla": true,
   "bplaDim": true,
   "uab": false,
   "uabDim": false,
   "fpv": false,
   "rocket": false,
   "rocket_level": false,
   "aviation": false,
   "pvo": false,
   "lat": 47.92498,
   "lon": 38.20235
  },
  "старобешево|донецкая народная республика": {
   "name": "Старобешево",
   "region": "Донецкая Народная Республика",
   "bpla": true,
   "bplaDim": true,
   "uab": false,
   "uabDim": false,
   "fpv": false,
   "rocket": false,
   "rocket_level": false,
   "aviation": false,
   "pvo": false,
   "lat": 47.75068,
   "lon": 38.03039
  },
  "крымский район|краснодарский край": {
   "name": "Крымский район",
   "region": "Краснодарский край",
   "bpla": true,
   "bplaDim": false,
   "uab": false,
   "uabDim": false,
   "fpv": false,
   "rocket": false,
   "rocket_level": false,
   "aviation": false,
   "pvo": false,
   "lat": 44.9624541,
   "lon": 37.896802
  },
  "новоалексеевка|херсонская область": {
   "name": "Новоалексеевка",
   "region": "Херсонская область",
   "bpla": true,
   "bplaDim": true,
   "uab": false,
   "uabDim": false,
   "fpv": false,
   "rocket": false,
   "rocket_level": false,
   "aviation": false,
   "pvo": false,
   "lat": 46.22995,
   "lon": 34.64576
  },
  "мелитополь|запорожская область": {
   "name": "Мелитополь",
   "region": "Запорожская область",
   "bpla": true,
   "bplaDim": false,
   "uab": false,
   "uabDim": false,
   "fpv": false,
   "rocket": false,
   "rocket_level": false,
   "aviation": false,
   "pvo": false,
   "lat": 46.84735,
   "lon": 35.38196
  },
  "славянский район|краснодарский край": {
   "name": "Славянский район",
   "region": "Краснодарский край",
   "bpla": true,
   "bplaDim": false,
   "uab": false,
   "uabDim": false,
   "fpv": false,
   "rocket": false,
   "rocket_level": false,
   "aviation": false,
   "pvo": false,
   "lat": 45.432373,
   "lon": 37.8218601
  },
  "севастополь|севастополь": {
   "name": "Севастополь",
   "region": "Севастополь",
   "bpla": false,
   "bplaDim": false,
   "uab": false,
   "uabDim": false,
   "fpv": false,
   "rocket": true,
   "rocket_level": true,
   "aviation": false,
   "pvo": false,
   "lat": 44.60795,
   "lon": 33.52134
  },
  "афипский|краснодарский край": {
   "name": "Афипский",
   "region": "Краснодарский край",
   "bpla": true,
   "bplaDim": false,
   "uab": false,
   "uabDim": false,
   "fpv": false,
   "rocket": false,
   "rocket_level": false,
   "aviation": false,
   "pvo": false,
   "lat": 44.9040435,
   "lon": 38.8426821
  }
 },
 "timestamp": 1783764648.498455,
 "fetched_at": "2026-07-11T10:10:48Z"
}