{
 "cities": {
  "褕械斜械泻懈薪芯|斜械谢谐芯褉芯写褋泻邪褟 芯斜谢邪褋褌褜": {
   "name": "楔械斜械泻懈薪芯",
   "region": "袘械谢谐芯褉芯写褋泻邪褟 芯斜谢邪褋褌褜",
   "bpla": true,
   "bplaDim": true,
   "uab": false,
   "uabDim": false,
   "fpv": false,
   "rocket": false,
   "rocket_level": false,
   "aviation": false,
   "pvo": false,
   "lat": 50.41342,
   "lon": 36.92537
  },
  "褋懈屑褎械褉芯锌芯谢褜|邪胁褌芯薪芯屑薪邪褟 褉械褋锌褍斜谢懈泻邪 泻褉褘屑": {
   "name": "小懈屑褎械褉芯锌芯谢褜",
   "region": "袗胁褌芯薪芯屑薪邪褟 袪械褋锌褍斜谢懈泻邪 袣褉褘屑",
   "bpla": true,
   "bplaDim": true,
   "uab": false,
   "uabDim": false,
   "fpv": false,
   "rocket": false,
   "rocket_level": false,
   "aviation": false,
   "pvo": false,
   "lat": 44.95719,
   "lon": 34.11079
  },
  "褔械褉薪芯屑芯褉褋泻芯械|邪胁褌芯薪芯屑薪邪褟 褉械褋锌褍斜谢懈泻邪 泻褉褘屑": {
   "name": "效械褉薪芯屑芯褉褋泻芯械",
   "region": "袗胁褌芯薪芯屑薪邪褟 袪械褋锌褍斜谢懈泻邪 袣褉褘屑",
   "bpla": true,
   "bplaDim": true,
   "uab": false,
   "uabDim": false,
   "fpv": false,
   "rocket": false,
   "rocket_level": false,
   "aviation": false,
   "pvo": false,
   "lat": 45.50657,
   "lon": 32.69776
  },
  "泻邪蟹邪褔褜褟|褋械胁邪褋褌芯锌芯谢褜": {
   "name": "袣邪蟹邪褔褜褟",
   "region": "小械胁邪褋褌芯锌芯谢褜",
   "bpla": true,
   "bplaDim": true,
   "uab": false,
   "uabDim": false,
   "fpv": false,
   "rocket": false,
   "rocket_level": false,
   "aviation": false,
   "pvo": false,
   "lat": 44.572058,
   "lon": 33.411822
  },
  "褋邪泻懈|邪胁褌芯薪芯屑薪邪褟 褉械褋锌褍斜谢懈泻邪 泻褉褘屑": {
   "name": "小邪泻懈",
   "region": "袗胁褌芯薪芯屑薪邪褟 袪械褋锌褍斜谢懈泻邪 袣褉褘屑",
   "bpla": true,
   "bplaDim": true,
   "uab": false,
   "uabDim": false,
   "fpv": false,
   "rocket": false,
   "rocket_level": false,
   "aviation": false,
   "pvo": false,
   "lat": 45.13293,
   "lon": 33.605237
  },
  "褋胁械褌谢芯写邪褉褋泻|写芯薪械褑泻邪褟 薪邪褉芯写薪邪褟 褉械褋锌褍斜谢懈泻邪": {
   "name": "小胁械褌谢芯写邪褉褋泻",
   "region": "袛芯薪械褑泻邪褟 袧邪褉芯写薪邪褟 袪械褋锌褍斜谢懈泻邪",
   "bpla": true,
   "bplaDim": true,
   "uab": false,
   "uabDim": false,
   "fpv": false,
   "rocket": false,
   "rocket_level": false,
   "aviation": false,
   "pvo": false,
   "lat": 48.43374,
   "lon": 38.22331
  },
  "褌邪屑邪薪褜|泻褉邪褋薪芯写邪褉褋泻懈泄 泻褉邪泄": {
   "name": "孝邪屑邪薪褜",
   "region": "袣褉邪褋薪芯写邪褉褋泻懈泄 泻褉邪泄",
   "bpla": true,
   "bplaDim": true,
   "uab": false,
   "uabDim": false,
   "fpv": false,
   "rocket": false,
   "rocket_level": false,
   "aviation": false,
   "pvo": false,
   "lat": 45.2158646,
   "lon": 36.7191326
  },
  "屑褑械薪褋泻懈泄 褉邪泄芯薪|芯褉谢芯胁褋泻邪褟 芯斜谢邪褋褌褜": {
   "name": "袦褑械薪褋泻懈泄 褉邪泄芯薪",
   "region": "袨褉谢芯胁褋泻邪褟 芯斜谢邪褋褌褜",
   "bpla": true,
   "bplaDim": false,
   "uab": false,
   "uabDim": false,
   "fpv": false,
   "rocket": false,
   "rocket_level": false,
   "aviation": false,
   "pvo": false,
   "lat": 53.2451748,
   "lon": 36.5945584
  },
  "邪写谢械褉, 褋芯褔懈|泻褉邪褋薪芯写邪褉褋泻懈泄 泻褉邪泄": {
   "name": "袗写谢械褉, 小芯褔懈",
   "region": "袣褉邪褋薪芯写邪褉褋泻懈泄 泻褉邪泄",
   "bpla": true,
   "bplaDim": true,
   "uab": false,
   "uabDim": false,
   "fpv": false,
   "rocket": false,
   "rocket_level": false,
   "aviation": false,
   "pvo": false,
   "lat": 43.4439715,
   "lon": 39.9400928
  },
  "屑邪褉泻芯胁泻邪|谢褍谐邪薪褋泻邪褟 薪邪褉芯写薪邪褟 褉械褋锌褍斜谢懈泻邪": {
   "name": "袦邪褉泻芯胁泻邪",
   "region": "袥褍谐邪薪褋泻邪褟 袧邪褉芯写薪邪褟 袪械褋锌褍斜谢懈泻邪",
   "bpla": true,
   "bplaDim": true,
   "uab": false,
   "uabDim": false,
   "fpv": false,
   "rocket": false,
   "rocket_level": false,
   "aviation": false,
   "pvo": false,
   "lat": 49.52285,
   "lon": 39.57069
  },
  "褌邪屑邪薪褋泻懈泄 锌芯谢褍芯褋褌褉芯胁|泻褉邪褋薪芯写邪褉褋泻懈泄 泻褉邪泄": {
   "name": "孝邪屑邪薪褋泻懈泄 锌芯谢褍芯褋褌褉芯胁",
   "region": "袣褉邪褋薪芯写邪褉褋泻懈泄 泻褉邪泄",
   "bpla": true,
   "bplaDim": true,
   "uab": false,
   "uabDim": false,
   "fpv": false,
   "rocket": false,
   "rocket_level": false,
   "aviation": false,
   "pvo": false,
   "lat": 45.228747,
   "lon": 37.172906
  },
  "邪蟹芯胁|褉芯褋褌芯胁褋泻邪褟 芯斜谢邪褋褌褜": {
   "name": "袗蟹芯胁",
   "region": "袪芯褋褌芯胁褋泻邪褟 芯斜谢邪褋褌褜",
   "bpla": true,
   "bplaDim": true,
   "uab": false,
   "uabDim": false,
   "fpv": false,
   "rocket": false,
   "rocket_level": false,
   "aviation": false,
   "pvo": false,
   "lat": 47.1069,
   "lon": 39.41486
  },
  "谐胁邪褉写械泄褋泻芯械|邪胁褌芯薪芯屑薪邪褟 褉械褋锌褍斜谢懈泻邪 泻褉褘屑": {
   "name": "袚胁邪褉写械泄褋泻芯械",
   "region": "袗胁褌芯薪芯屑薪邪褟 袪械褋锌褍斜谢懈泻邪 袣褉褘屑",
   "bpla": true,
   "bplaDim": true,
   "uab": false,
   "uabDim": false,
   "fpv": false,
   "rocket": false,
   "rocket_level": false,
   "aviation": false,
   "pvo": false,
   "lat": 45.11692,
   "lon": 34.02188
  },
  "屑械谢懈褌芯锌芯谢褜|蟹邪锌芯褉芯卸褋泻邪褟 芯斜谢邪褋褌褜": {
   "name": "袦械谢懈褌芯锌芯谢褜",
   "region": "袟邪锌芯褉芯卸褋泻邪褟 芯斜谢邪褋褌褜",
   "bpla": true,
   "bplaDim": false,
   "uab": false,
   "uabDim": false,
   "fpv": false,
   "rocket": false,
   "rocket_level": false,
   "aviation": false,
   "pvo": false,
   "lat": 46.84735,
   "lon": 35.38196
  },
  "褉邪蟹写芯谢褜薪芯械|邪胁褌芯薪芯屑薪邪褟 褉械褋锌褍斜谢懈泻邪 泻褉褘屑": {
   "name": "袪邪蟹写芯谢褜薪芯械",
   "region": "袗胁褌芯薪芯屑薪邪褟 袪械褋锌褍斜谢懈泻邪 袣褉褘屑",
   "bpla": true,
   "bplaDim": true,
   "uab": false,
   "uabDim": false,
   "fpv": false,
   "rocket": false,
   "rocket_level": false,
   "aviation": false,
   "pvo": false,
   "lat": 45.77083,
   "lon": 33.48777
  },
  "写芯薪械褑泻|写芯薪械褑泻邪褟 薪邪褉芯写薪邪褟 褉械褋锌褍斜谢懈泻邪": {
   "name": "袛芯薪械褑泻",
   "region": "袛芯薪械褑泻邪褟 袧邪褉芯写薪邪褟 袪械褋锌褍斜谢懈泻邪",
   "bpla": true,
   "bplaDim": true,
   "uab": false,
   "uabDim": false,
   "fpv": false,
   "rocket": false,
   "rocket_level": false,
   "aviation": false,
   "pvo": false,
   "lat": 48.023,
   "lon": 37.80224
  },
  "褏械褉褋芯薪械褋|褋械胁邪褋褌芯锌芯谢褜": {
   "name": "啸械褉褋芯薪械褋",
   "region": "小械胁邪褋褌芯锌芯谢褜",
   "bpla": true,
   "bplaDim": true,
   "uab": false,
   "uabDim": false,
   "fpv": false,
   "rocket": false,
   "rocket_level": false,
   "aviation": false,
   "pvo": false,
   "lat": 44.583371,
   "lon": 33.380345
  },
  "max|泻褉邪褋薪芯写邪褉褋泻懈泄 泻褉邪泄": {
   "name": "MAX",
   "region": "袣褉邪褋薪芯写邪褉褋泻懈泄 泻褉邪泄",
   "bpla": true,
   "bplaDim": false,
   "uab": false,
   "uabDim": false,
   "fpv": false,
   "rocket": false,
   "rocket_level": false,
   "aviation": false,
   "pvo": true,
   "lat": 43.580453,
   "lon": 39.718881
  },
  "邪薪邪褋褌邪褋懈械胁泻邪|泻褉邪褋薪芯写邪褉褋泻懈泄 泻褉邪泄": {
   "name": "袗薪邪褋褌邪褋懈械胁泻邪",
   "region": "袣褉邪褋薪芯写邪褉褋泻懈泄 泻褉邪泄",
   "bpla": true,
   "bplaDim": false,
   "uab": false,
   "uabDim": false,
   "fpv": false,
   "rocket": false,
   "rocket_level": false,
   "aviation": false,
   "pvo": false,
   "lat": 44.1698073,
   "lon": 39.2818161
  },
  "褋芯谢芯薪褑褘|斜械谢谐芯褉芯写褋泻邪褟 芯斜谢邪褋褌褜": {
   "name": "小芯谢芯薪褑褘",
   "region": "袘械谢谐芯褉芯写褋泻邪褟 芯斜谢邪褋褌褜",
   "bpla": true,
   "bplaDim": true,
   "uab": false,
   "uabDim": false,
   "fpv": false,
   "rocket": false,
   "rocket_level": false,
   "aviation": false,
   "pvo": false,
   "lat": 49.9967,
   "lon": 38.5531674
  },
  "斜械谢懈褑泻芯械|写芯薪械褑泻邪褟 薪邪褉芯写薪邪褟 褉械褋锌褍斜谢懈泻邪": {
   "name": "袘械谢懈褑泻芯械",
   "region": "袛芯薪械褑泻邪褟 袧邪褉芯写薪邪褟 袪械褋锌褍斜谢懈泻邪",
   "bpla": false,
   "bplaDim": false,
   "uab": true,
   "uabDim": true,
   "fpv": false,
   "rocket": false,
   "rocket_level": false,
   "aviation": false,
   "pvo": false,
   "lat": 48.40642,
   "lon": 37.18111
  },
  "泻邪褔邪|邪胁褌芯薪芯屑薪邪褟 褉械褋锌褍斜谢懈泻邪 泻褉褘屑": {
   "name": "袣邪褔邪",
   "region": "袗胁褌芯薪芯屑薪邪褟 袪械褋锌褍斜谢懈泻邪 袣褉褘屑",
   "bpla": true,
   "bplaDim": true,
   "uab": false,
   "uabDim": false,
   "fpv": false,
   "rocket": false,
   "rocket_level": false,
   "aviation": false,
   "pvo": false,
   "lat": 44.772916,
   "lon": 33.543659
  },
  "褋谢邪胁褟薪褋泻懈泄 褉邪泄芯薪|泻褉邪褋薪芯写邪褉褋泻懈泄 泻褉邪泄": {
   "name": "小谢邪胁褟薪褋泻懈泄 褉邪泄芯薪",
   "region": "袣褉邪褋薪芯写邪褉褋泻懈泄 泻褉邪泄",
   "bpla": true,
   "bplaDim": false,
   "uab": false,
   "uabDim": false,
   "fpv": false,
   "rocket": false,
   "rocket_level": false,
   "aviation": false,
   "pvo": false,
   "lat": 45.432373,
   "lon": 37.8218601
  },
  "卸械谢械蟹薪芯谐芯褉褋泻|泻褍褉褋泻邪褟 芯斜谢邪褋褌褜": {
   "name": "袞械谢械蟹薪芯谐芯褉褋泻",
   "region": "袣褍褉褋泻邪褟 芯斜谢邪褋褌褜",
   "bpla": true,
   "bplaDim": true,
   "uab": false,
   "uabDim": false,
   "fpv": false,
   "rocket": false,
   "rocket_level": false,
   "aviation": false,
   "pvo": false,
   "lat": 52.34198,
   "lon": 35.35917
  },
  "懈薪泻械褉屑邪薪|褋械胁邪褋褌芯锌芯谢褜": {
   "name": "袠薪泻械褉屑邪薪",
   "region": "小械胁邪褋褌芯锌芯谢褜",
   "bpla": true,
   "bplaDim": true,
   "uab": false,
   "uabDim": false,
   "fpv": false,
   "rocket": false,
   "rocket_level": false,
   "aviation": false,
   "pvo": false,
   "lat": 44.61391,
   "lon": 33.6098
  },
  "锌褉懈褔械褉薪芯屑芯褉褜械|泻褉邪褋薪芯写邪褉褋泻懈泄 泻褉邪泄": {
   "name": "袩褉懈褔械褉薪芯屑芯褉褜械",
   "region": "袣褉邪褋薪芯写邪褉褋泻懈泄 泻褉邪泄",
   "bpla": true,
   "bplaDim": true,
   "uab": false,
   "uabDim": false,
   "fpv": false,
   "rocket": false,
   "rocket_level": false,
   "aviation": false,
   "pvo": false,
   "lat": 44.157515,
   "lon": 37.831548
  },
  "斜邪褌邪泄褋泻|褉芯褋褌芯胁褋泻邪褟 芯斜谢邪褋褌褜": {
   "name": "袘邪褌邪泄褋泻",
   "region": "袪芯褋褌芯胁褋泻邪褟 芯斜谢邪褋褌褜",
   "bpla": true,
   "bplaDim": true,
   "uab": false,
   "uabDim": false,
   "fpv": false,
   "rocket": false,
   "rocket_level": false,
   "aviation": false,
   "pvo": false,
   "lat": 47.13746,
   "lon": 39.75713
  },
  "斜邪谢邪泻谢邪胁邪|褋械胁邪褋褌芯锌芯谢褜": {
   "name": "袘邪谢邪泻谢邪胁邪",
   "region": "小械胁邪褋褌芯锌芯谢褜",
   "bpla": true,
   "bplaDim": true,
   "uab": false,
   "uabDim": false,
   "fpv": false,
   "rocket": false,
   "rocket_level": false,
   "aviation": false,
   "pvo": false,
   "lat": 44.51118,
   "lon": 33.59942
  },
  "泻褍褉褔邪薪褋泻邪褟|泻褉邪褋薪芯写邪褉褋泻懈泄 泻褉邪泄": {
   "name": "袣褍褉褔邪薪褋泻邪褟",
   "region": "袣褉邪褋薪芯写邪褉褋泻懈泄 泻褉邪泄",
   "bpla": true,
   "bplaDim": true,
   "uab": false,
   "uabDim": false,
   "fpv": false,
   "rocket": false,
   "rocket_level": false,
   "aviation": false,
   "pvo": false,
   "lat": 45.219315,
   "lon": 37.568371
  },
  "褎懈芯谢械薪褌|褋械胁邪褋褌芯锌芯谢褜": {
   "name": "肖懈芯谢械薪褌",
   "region": "小械胁邪褋褌芯锌芯谢褜",
   "bpla": true,
   "bplaDim": true,
   "uab": false,
   "uabDim": false,
   "fpv": false,
   "rocket": false,
   "rocket_level": false,
   "aviation": false,
   "pvo": false,
   "lat": 44.501394,
   "lon": 33.489158
  },
  "褉邪蟹褍屑薪芯械|斜械谢谐芯褉芯写褋泻邪褟 芯斜谢邪褋褌褜": {
   "name": "袪邪蟹褍屑薪芯械",
   "region": "袘械谢谐芯褉芯写褋泻邪褟 芯斜谢邪褋褌褜",
   "bpla": true,
   "bplaDim": true,
   "uab": false,
   "uabDim": false,
   "fpv": false,
   "rocket": false,
   "rocket_level": false,
   "aviation": false,
   "pvo": false,
   "lat": 50.5347515,
   "lon": 36.6859568
  },
  "褌褢锌谢芯-芯谐邪褉褢胁褋泻懈泄|褌褍谢褜褋泻邪褟 芯斜谢邪褋褌褜": {
   "name": "孝褢锌谢芯-袨谐邪褉褢胁褋泻懈泄",
   "region": "孝褍谢褜褋泻邪褟 芯斜谢邪褋褌褜",
   "bpla": true,
   "bplaDim": false,
   "uab": false,
   "uabDim": false,
   "fpv": false,
   "rocket": false,
   "rocket_level": false,
   "aviation": false,
   "pvo": false,
   "lat": 53.5750341,
   "lon": 37.6511876
  },
  "胁懈谢懈薪芯|邪胁褌芯薪芯屑薪邪褟 褉械褋锌褍斜谢懈泻邪 泻褉褘屑": {
   "name": "袙懈谢懈薪芯",
   "region": "袗胁褌芯薪芯屑薪邪褟 袪械褋锌褍斜谢懈泻邪 袣褉褘屑",
   "bpla": true,
   "bplaDim": false,
   "uab": false,
   "uabDim": false,
   "fpv": false,
   "rocket": false,
   "rocket_level": false,
   "aviation": false,
   "pvo": false,
   "lat": 44.8456,
   "lon": 33.67161
  },
  "褋谢邪胁褟薪褋泻 薪邪 泻褍斜邪薪懈|泻褉邪褋薪芯写邪褉褋泻懈泄 泻褉邪泄": {
   "name": "小谢邪胁褟薪褋泻 薪邪 袣褍斜邪薪懈",
   "region": "袣褉邪褋薪芯写邪褉褋泻懈泄 泻褉邪泄",
   "bpla": true,
   "bplaDim": true,
   "uab": false,
   "uabDim": false,
   "fpv": false,
   "rocket": false,
   "rocket_level": false,
   "aviation": false,
   "pvo": false,
   "lat": 45.2492346,
   "lon": 38.1092674
  },
  "胁懈褌褟蟹械胁芯|泻褉邪褋薪芯写邪褉褋泻懈泄 泻褉邪泄": {
   "name": "袙懈褌褟蟹械胁芯",
   "region": "袣褉邪褋薪芯写邪褉褋泻懈泄 泻褉邪泄",
   "bpla": true,
   "bplaDim": false,
   "uab": false,
   "uabDim": false,
   "fpv": false,
   "rocket": false,
   "rocket_level": false,
   "aviation": false,
   "pvo": false,
   "lat": 44.9897066,
   "lon": 37.2607195
  },
  "褌褍邪锌褋械|泻褉邪褋薪芯写邪褉褋泻懈泄 泻褉邪泄": {
   "name": "孝褍邪锌褋械",
   "region": "袣褉邪褋薪芯写邪褉褋泻懈泄 泻褉邪泄",
   "bpla": true,
   "bplaDim": true,
   "uab": false,
   "uabDim": false,
   "fpv": false,
   "rocket": false,
   "rocket_level": false,
   "aviation": false,
   "pvo": false,
   "lat": 44.0984747,
   "lon": 39.0718875
  },
  "褉芯写懈薪褋泻芯械|写芯薪械褑泻邪褟 薪邪褉芯写薪邪褟 褉械褋锌褍斜谢懈泻邪": {
   "name": "袪芯写懈薪褋泻芯械",
   "region": "袛芯薪械褑泻邪褟 袧邪褉芯写薪邪褟 袪械褋锌褍斜谢懈泻邪",
   "bpla": false,
   "bplaDim": false,
   "uab": true,
   "uabDim": true,
   "fpv": false,
   "rocket": false,
   "rocket_level": false,
   "aviation": false,
   "pvo": false,
   "lat": 48.35415,
   "lon": 37.20641
  },
  "写械斜邪谢褜褑械胁芯|写芯薪械褑泻邪褟 薪邪褉芯写薪邪褟 褉械褋锌褍斜谢懈泻邪": {
   "name": "袛械斜邪谢褜褑械胁芯",
   "region": "袛芯薪械褑泻邪褟 袧邪褉芯写薪邪褟 袪械褋锌褍斜谢懈泻邪",
   "bpla": true,
   "bplaDim": true,
   "uab": false,
   "uabDim": false,
   "fpv": false,
   "rocket": false,
   "rocket_level": false,
   "aviation": false,
   "pvo": false,
   "lat": 48.33592,
   "lon": 38.40261
  },
  "邪薪邪锌邪|泻褉邪褋薪芯写邪褉褋泻懈泄 泻褉邪泄": {
   "name": "袗薪邪锌邪",
   "region": "袣褉邪褋薪芯写邪褉褋泻懈泄 泻褉邪泄",
   "bpla": true,
   "bplaDim": false,
   "uab": false,
   "uabDim": false,
   "fpv": false,
   "rocket": false,
   "rocket_level": false,
   "aviation": false,
   "pvo": false,
   "lat": 44.89497,
   "lon": 37.31623
  },
  "褌芯泻屑邪泻|蟹邪锌芯褉芯卸褋泻邪褟 芯斜谢邪褋褌褜": {
   "name": "孝芯泻屑邪泻",
   "region": "袟邪锌芯褉芯卸褋泻邪褟 芯斜谢邪褋褌褜",
   "bpla": true,
   "bplaDim": false,
   "uab": false,
   "uabDim": false,
   "fpv": false,
   "rocket": false,
   "rocket_level": false,
   "aviation": false,
   "pvo": false,
   "lat": 47.25554,
   "lon": 35.70836
  },
  "泻邪褏芯胁泻邪|褏械褉褋芯薪褋泻邪褟 芯斜谢邪褋褌褜": {
   "name": "袣邪褏芯胁泻邪",
   "region": "啸械褉褋芯薪褋泻邪褟 芯斜谢邪褋褌褜",
   "bpla": true,
   "bplaDim": false,
   "uab": false,
   "uabDim": false,
   "fpv": false,
   "rocket": false,
   "rocket_level": false,
   "aviation": false,
   "pvo": false,
   "lat": 46.81601,
   "lon": 33.47862
  },
  "斜械谢谐芯褉芯写|斜械谢谐芯褉芯写褋泻邪褟 芯斜谢邪褋褌褜": {
   "name": "袘械谢谐芯褉芯写",
   "region": "袘械谢谐芯褉芯写褋泻邪褟 芯斜谢邪褋褌褜",
   "bpla": true,
   "bplaDim": true,
   "uab": false,
   "uabDim": false,
   "fpv": false,
   "rocket": false,
   "rocket_level": false,
   "aviation": false,
   "pvo": false,
   "lat": 50.5955595,
   "lon": 36.5873394
  },
  "泻芯谢褜褔褍谐懈薪芯|邪胁褌芯薪芯屑薪邪褟 褉械褋锌褍斜谢懈泻邪 泻褉褘屑": {
   "name": "袣芯谢褜褔褍谐懈薪芯",
   "region": "袗胁褌芯薪芯屑薪邪褟 袪械褋锌褍斜谢懈泻邪 袣褉褘屑",
   "bpla": true,
   "bplaDim": false,
   "uab": false,
   "uabDim": false,
   "fpv": false,
   "rocket": false,
   "rocket_level": false,
   "aviation": false,
   "pvo": false,
   "lat": 44.945966,
   "lon": 33.793696
  },
  "褌褉邪褋褋邪|斜褉褟薪褋泻邪褟 芯斜谢邪褋褌褜": {
   "name": "褌褉邪褋褋邪",
   "region": "袘褉褟薪褋泻邪褟 芯斜谢邪褋褌褜",
   "bpla": true,
   "bplaDim": true,
   "uab": false,
   "uabDim": false,
   "fpv": false,
   "rocket": false,
   "rocket_level": false,
   "aviation": false,
   "pvo": false,
   "lat": 53.395264,
   "lon": 34.3207189
  },
  "褔邪锌谢褘薪泻邪|褏械褉褋芯薪褋泻邪褟 芯斜谢邪褋褌褜": {
   "name": "效邪锌谢褘薪泻邪",
   "region": "啸械褉褋芯薪褋泻邪褟 芯斜谢邪褋褌褜",
   "bpla": true,
   "bplaDim": true,
   "uab": false,
   "uabDim": false,
   "fpv": false,
   "rocket": false,
   "rocket_level": false,
   "aviation": false,
   "pvo": false,
   "lat": 46.36454,
   "lon": 33.54087
  },
  "薪芯胁芯褎褢写芯褉芯胁泻邪|邪胁褌芯薪芯屑薪邪褟 褉械褋锌褍斜谢懈泻邪 泻褉褘屑": {
   "name": "袧芯胁芯褎褢写芯褉芯胁泻邪",
   "region": "袗胁褌芯薪芯屑薪邪褟 袪械褋锌褍斜谢懈泻邪 袣褉褘屑",
   "bpla": true,
   "bplaDim": true,
   "uab": false,
   "uabDim": false,
   "fpv": false,
   "rocket": false,
   "rocket_level": false,
   "aviation": false,
   "pvo": false,
   "lat": 45.09473,
   "lon": 33.57211
  },
  "褉械褋锌褍斜谢懈泻邪 泻褉褘屑|邪胁褌芯薪芯屑薪邪褟 褉械褋锌褍斜谢懈泻邪 泻褉褘屑": {
   "name": "袪械褋锌褍斜谢懈泻邪 袣褉褘屑",
   "region": "袗胁褌芯薪芯屑薪邪褟 袪械褋锌褍斜谢懈泻邪 袣褉褘屑",
   "bpla": true,
   "bplaDim": false,
   "uab": false,
   "uabDim": false,
   "fpv": false,
   "rocket": false,
   "rocket_level": false,
   "aviation": false,
   "pvo": false,
   "lat": 44.948237,
   "lon": 34.100318
  },
  "褋械胁邪褋褌芯锌芯谢褜|褋械胁邪褋褌芯锌芯谢褜": {
   "name": "小械胁邪褋褌芯锌芯谢褜",
   "region": "小械胁邪褋褌芯锌芯谢褜",
   "bpla": true,
   "bplaDim": false,
   "uab": false,
   "uabDim": false,
   "fpv": false,
   "rocket": false,
   "rocket_level": false,
   "aviation": false,
   "pvo": false,
   "lat": 44.60795,
   "lon": 33.52134
  },
  "械泄褋泻|泻褉邪褋薪芯写邪褉褋泻懈泄 泻褉邪泄": {
   "name": "袝泄褋泻",
   "region": "袣褉邪褋薪芯写邪褉褋泻懈泄 泻褉邪泄",
   "bpla": true,
   "bplaDim": true,
   "uab": false,
   "uabDim": false,
   "fpv": false,
   "rocket": false,
   "rocket_level": false,
   "aviation": false,
   "pvo": false,
   "lat": 46.69263,
   "lon": 38.27907
  },
  "邪写谢械褉|泻褉邪褋薪芯写邪褉褋泻懈泄 泻褉邪泄": {
   "name": "袗写谢械褉",
   "region": "袣褉邪褋薪芯写邪褉褋泻懈泄 泻褉邪泄",
   "bpla": true,
   "bplaDim": false,
   "uab": false,
   "uabDim": false,
   "fpv": false,
   "rocket": false,
   "rocket_level": false,
   "aviation": false,
   "pvo": false,
   "lat": 43.42896,
   "lon": 39.92391
  },
  "锌褉懈屑芯褉褋泻|蟹邪锌芯褉芯卸褋泻邪褟 芯斜谢邪褋褌褜": {
   "name": "袩褉懈屑芯褉褋泻",
   "region": "袟邪锌芯褉芯卸褋泻邪褟 芯斜谢邪褋褌褜",
   "bpla": true,
   "bplaDim": true,
   "uab": false,
   "uabDim": false,
   "fpv": false,
   "rocket": false,
   "rocket_level": false,
   "aviation": false,
   "pvo": false,
   "lat": 46.73415,
   "lon": 36.34599
  },
  "写邪谢褜薪懈泄|斜械谢谐芯褉芯写褋泻邪褟 芯斜谢邪褋褌褜": {
   "name": "袛邪谢褜薪懈泄",
   "region": "袘械谢谐芯褉芯写褋泻邪褟 芯斜谢邪褋褌褜",
   "bpla": true,
   "bplaDim": true,
   "uab": false,
   "uabDim": false,
   "fpv": false,
   "rocket": false,
   "rocket_level": false,
   "aviation": false,
   "pvo": false,
   "lat": 49.9478802,
   "lon": 38.1079265
  },
  "薪懈泻芯谢褜褋泻芯械|写芯薪械褑泻邪褟 薪邪褉芯写薪邪褟 褉械褋锌褍斜谢懈泻邪": {
   "name": "袧懈泻芯谢褜褋泻芯械",
   "region": "袛芯薪械褑泻邪褟 袧邪褉芯写薪邪褟 袪械褋锌褍斜谢懈泻邪",
   "bpla": true,
   "bplaDim": true,
   "uab": false,
   "uabDim": false,
   "fpv": false,
   "rocket": false,
   "rocket_level": false,
   "aviation": false,
   "pvo": false,
   "lat": 47.20533,
   "lon": 37.32139
  },
  "褌褍谢褜褋泻邪褟 芯斜谢邪褋褌褜|屑芯褋泻芯胁褋泻邪褟 芯斜谢邪褋褌褜": {
   "name": "孝褍谢褜褋泻邪褟 芯斜谢邪褋褌褜",
   "region": "袦芯褋泻芯胁褋泻邪褟 芯斜谢邪褋褌褜",
   "bpla": true,
   "bplaDim": true,
   "uab": false,
   "uabDim": false,
   "fpv": false,
   "rocket": false,
   "rocket_level": false,
   "aviation": false,
   "pvo": false,
   "lat": 55.9762394,
   "lon": 37.4982735
  },
  "泻褉褘屑褋泻|泻褉邪褋薪芯写邪褉褋泻懈泄 泻褉邪泄": {
   "name": "袣褉褘屑褋泻",
   "region": "袣褉邪褋薪芯写邪褉褋泻懈泄 泻褉邪泄",
   "bpla": true,
   "bplaDim": true,
   "uab": false,
   "uabDim": false,
   "fpv": false,
   "rocket": false,
   "rocket_level": false,
   "aviation": false,
   "pvo": false,
   "lat": 44.92625,
   "lon": 37.99025
  },
  "锌褉懈屑芯褉褋泻芯-邪褏褌邪褉褋泻|泻褉邪褋薪芯写邪褉褋泻懈泄 泻褉邪泄": {
   "name": "袩褉懈屑芯褉褋泻芯-袗褏褌邪褉褋泻",
   "region": "袣褉邪褋薪芯写邪褉褋泻懈泄 泻褉邪泄",
   "bpla": true,
   "bplaDim": true,
   "uab": false,
   "uabDim": false,
   "fpv": false,
   "rocket": false,
   "rocket_level": false,
   "aviation": false,
   "pvo": false,
   "lat": 46.04847,
   "lon": 38.17899
  },
  "褎械芯写芯褋懈褟|邪胁褌芯薪芯屑薪邪褟 褉械褋锌褍斜谢懈泻邪 泻褉褘屑": {
   "name": "肖械芯写芯褋懈褟",
   "region": "袗胁褌芯薪芯屑薪邪褟 袪械褋锌褍斜谢懈泻邪 袣褉褘屑",
   "bpla": true,
   "bplaDim": true,
   "uab": false,
   "uabDim": false,
   "fpv": false,
   "rocket": false,
   "rocket_level": false,
   "aviation": false,
   "pvo": false,
   "lat": 45.026654,
   "lon": 35.383911
  },
  "斜邪褏褔懈褋邪褉邪泄|邪胁褌芯薪芯屑薪邪褟 褉械褋锌褍斜谢懈泻邪 泻褉褘屑": {
   "name": "袘邪褏褔懈褋邪褉邪泄",
   "region": "袗胁褌芯薪芯屑薪邪褟 袪械褋锌褍斜谢懈泻邪 袣褉褘屑",
   "bpla": true,
   "bplaDim": true,
   "uab": false,
   "uabDim": false,
   "fpv": false,
   "rocket": false,
   "rocket_level": false,
   "aviation": false,
   "pvo": false,
   "lat": 44.754571,
   "lon": 33.854009
  },
  "屑邪泻械械胁泻邪|写芯薪械褑泻邪褟 薪邪褉芯写薪邪褟 褉械褋锌褍斜谢懈泻邪": {
   "name": "袦邪泻械械胁泻邪",
   "region": "袛芯薪械褑泻邪褟 袧邪褉芯写薪邪褟 袪械褋锌褍斜谢懈泻邪",
   "bpla": true,
   "bplaDim": true,
   "uab": false,
   "uabDim": false,
   "fpv": false,
   "rocket": false,
   "rocket_level": false,
   "aviation": false,
   "pvo": false,
   "lat": 48.04782,
   "lon": 37.92576
  },
  "胁邪谢褍泄褋泻芯谐芯 褉邪泄芯薪邪|斜械谢谐芯褉芯写褋泻邪褟 芯斜谢邪褋褌褜": {
   "name": "袙邪谢褍泄褋泻芯谐芯 褉邪泄芯薪邪",
   "region": "袘械谢谐芯褉芯写褋泻邪褟 芯斜谢邪褋褌褜",
   "bpla": true,
   "bplaDim": true,
   "uab": false,
   "uabDim": false,
   "fpv": false,
   "rocket": false,
   "rocket_level": false,
   "aviation": false,
   "pvo": false,
   "lat": 50.211038,
   "lon": 38.0997012
  },
  "褋懈褉懈褍褋|泻褉邪褋薪芯写邪褉褋泻懈泄 泻褉邪泄": {
   "name": "小懈褉懈褍褋",
   "region": "袣褉邪褋薪芯写邪褉褋泻懈泄 泻褉邪泄",
   "bpla": true,
   "bplaDim": false,
   "uab": false,
   "uabDim": false,
   "fpv": false,
   "rocket": false,
   "rocket_level": false,
   "aviation": false,
   "pvo": false,
   "lat": 43.404857,
   "lon": 39.959453
  },
  "泻械褉褔械薪褋泻懈泄 锌芯谢褍芯褋褌褉芯胁|邪胁褌芯薪芯屑薪邪褟 褉械褋锌褍斜谢懈泻邪 泻褉褘屑": {
   "name": "袣械褉褔械薪褋泻懈泄 锌芯谢褍芯褋褌褉芯胁",
   "region": "袗胁褌芯薪芯屑薪邪褟 袪械褋锌褍斜谢懈泻邪 袣褉褘屑",
   "bpla": true,
   "bplaDim": true,
   "uab": false,
   "uabDim": false,
   "fpv": false,
   "rocket": false,
   "rocket_level": false,
   "aviation": false,
   "pvo": false,
   "lat": 45.250954,
   "lon": 36.140668
  }
 },
 "timestamp": 1783500359.162416,
 "fetched_at": "2026-07-08T08:45:59Z"
}