{
 "cities": {
  "керченский полуостров|автономная республика крым": {
   "name": "Керченский полуостров",
   "region": "Автономная Республика Крым",
   "bpla": true,
   "bplaDim": false,
   "uab": false,
   "uabDim": false,
   "fpv": false,
   "rocket": false,
   "rocket_level": false,
   "aviation": false,
   "pvo": false,
   "lat": 45.250954,
   "lon": 36.140668
  },
  "керчь|автономная республика крым": {
   "name": "Керчь",
   "region": "Автономная Республика Крым",
   "bpla": true,
   "bplaDim": true,
   "uab": false,
   "uabDim": false,
   "fpv": false,
   "rocket": false,
   "rocket_level": false,
   "aviation": false,
   "pvo": false,
   "lat": 45.35675,
   "lon": 36.47542
  },
  "миллерово|ростовская область": {
   "name": "Миллерово",
   "region": "Ростовская область",
   "bpla": true,
   "bplaDim": true,
   "uab": false,
   "uabDim": false,
   "fpv": false,
   "rocket": false,
   "rocket_level": false,
   "aviation": false,
   "pvo": false,
   "lat": 48.92523,
   "lon": 40.39982
  },
  "балаклава|севастополь": {
   "name": "Балаклава",
   "region": "Севастополь",
   "bpla": true,
   "bplaDim": true,
   "uab": false,
   "uabDim": false,
   "fpv": false,
   "rocket": false,
   "rocket_level": false,
   "aviation": false,
   "pvo": false,
   "lat": 44.51118,
   "lon": 33.59942
  },
  "алексин|тульская область": {
   "name": "Алексин",
   "region": "Тульская область",
   "bpla": true,
   "bplaDim": true,
   "uab": false,
   "uabDim": false,
   "fpv": false,
   "rocket": false,
   "rocket_level": false,
   "aviation": false,
   "pvo": false,
   "lat": 54.50484,
   "lon": 37.06697
  },
  "белокуракино|луганская народная республика": {
   "name": "Белокуракино",
   "region": "Луганская Народная Республика",
   "bpla": true,
   "bplaDim": true,
   "uab": false,
   "uabDim": false,
   "fpv": false,
   "rocket": false,
   "rocket_level": false,
   "aviation": false,
   "pvo": false,
   "lat": 49.53458,
   "lon": 38.72723
  },
  "армянск|автономная республика крым": {
   "name": "Армянск",
   "region": "Автономная Республика Крым",
   "bpla": true,
   "bplaDim": true,
   "uab": false,
   "uabDim": false,
   "fpv": false,
   "rocket": false,
   "rocket_level": false,
   "aviation": false,
   "pvo": false,
   "lat": 46.10919,
   "lon": 33.69206
  },
  "горловка|донецкая народная республика": {
   "name": "Горловка",
   "region": "Донецкая Народная Республика",
   "bpla": true,
   "bplaDim": true,
   "uab": false,
   "uabDim": false,
   "fpv": false,
   "rocket": false,
   "rocket_level": false,
   "aviation": false,
   "pvo": false,
   "lat": 48.29986,
   "lon": 38.01709
  },
  "бобровский район|воронежская область": {
   "name": "Бобровский район",
   "region": "Воронежская область",
   "bpla": true,
   "bplaDim": false,
   "uab": false,
   "uabDim": false,
   "fpv": false,
   "rocket": false,
   "rocket_level": false,
   "aviation": false,
   "pvo": false,
   "lat": 51.0587584,
   "lon": 40.136332
  },
  "сызрань|самарская область": {
   "name": "Сызрань",
   "region": "Самарская область",
   "bpla": true,
   "bplaDim": false,
   "uab": false,
   "uabDim": false,
   "fpv": false,
   "rocket": false,
   "rocket_level": false,
   "aviation": false,
   "pvo": false,
   "lat": 53.1585,
   "lon": 48.4681
  },
  "серафимовичский район|волгоградская область": {
   "name": "Серафимовичский район",
   "region": "Волгоградская область",
   "bpla": true,
   "bplaDim": false,
   "uab": false,
   "uabDim": false,
   "fpv": false,
   "rocket": false,
   "rocket_level": false,
   "aviation": false,
   "pvo": false,
   "lat": 49.4953466,
   "lon": 42.7517542
  },
  "первомайское|автономная республика крым": {
   "name": "Первомайское",
   "region": "Автономная Республика Крым",
   "bpla": true,
   "bplaDim": true,
   "uab": false,
   "uabDim": false,
   "fpv": false,
   "rocket": false,
   "rocket_level": false,
   "aviation": false,
   "pvo": false,
   "lat": 45.71744,
   "lon": 33.85596
  },
  "лисичанск|луганская народная республика": {
   "name": "Лисичанск",
   "region": "Луганская Народная Республика",
   "bpla": true,
   "bplaDim": true,
   "uab": false,
   "uabDim": false,
   "fpv": false,
   "rocket": false,
   "rocket_level": false,
   "aviation": false,
   "pvo": false,
   "lat": 48.90421,
   "lon": 38.44094
  },
  "сартана|донецкая народная республика": {
   "name": "Сартана",
   "region": "Донецкая Народная Республика",
   "bpla": true,
   "bplaDim": true,
   "uab": false,
   "uabDim": false,
   "fpv": false,
   "rocket": false,
   "rocket_level": false,
   "aviation": false,
   "pvo": false,
   "lat": 47.17523,
   "lon": 37.69184
  },
  "кромской район|орловская область": {
   "name": "Кромской район",
   "region": "Орловская область",
   "bpla": true,
   "bplaDim": false,
   "uab": false,
   "uabDim": false,
   "fpv": false,
   "rocket": false,
   "rocket_level": false,
   "aviation": false,
   "pvo": false,
   "lat": 52.6644148,
   "lon": 35.7775631
  },
  "ачуево|краснодарский край": {
   "name": "Ачуево",
   "region": "Краснодарский край",
   "bpla": true,
   "bplaDim": true,
   "uab": false,
   "uabDim": false,
   "fpv": false,
   "rocket": false,
   "rocket_level": false,
   "aviation": false,
   "pvo": false,
   "lat": 45.710182,
   "lon": 37.775433
  },
  "липецкий район|липецкая область": {
   "name": "Липецкий район",
   "region": "Липецкая область",
   "bpla": true,
   "bplaDim": false,
   "uab": false,
   "uabDim": false,
   "fpv": false,
   "rocket": false,
   "rocket_level": false,
   "aviation": false,
   "pvo": false,
   "lat": 52.5661193,
   "lon": 39.2899313
  },
  "борисоглебск|воронежская область": {
   "name": "Борисоглебск",
   "region": "Воронежская область",
   "bpla": true,
   "bplaDim": true,
   "uab": false,
   "uabDim": false,
   "fpv": false,
   "rocket": false,
   "rocket_level": false,
   "aviation": false,
   "pvo": false,
   "lat": 51.368015,
   "lon": 42.075169
  },
  "октябрьское|автономная республика крым": {
   "name": "Октябрьское",
   "region": "Автономная Республика Крым",
   "bpla": true,
   "bplaDim": true,
   "uab": false,
   "uabDim": false,
   "fpv": false,
   "rocket": false,
   "rocket_level": false,
   "aviation": false,
   "pvo": false,
   "lat": 45.28866,
   "lon": 34.13521
  },
  "ершичский район|смоленская область": {
   "name": "Ершичский район",
   "region": "Смоленская область",
   "bpla": true,
   "bplaDim": false,
   "uab": false,
   "uabDim": false,
   "fpv": false,
   "rocket": false,
   "rocket_level": false,
   "aviation": false,
   "pvo": false,
   "lat": 53.6046499,
   "lon": 32.6901656
  },
  "жиздринский район|калужская область": {
   "name": "Жиздринский район",
   "region": "Калужская область",
   "bpla": true,
   "bplaDim": false,
   "uab": false,
   "uabDim": false,
   "fpv": false,
   "rocket": false,
   "rocket_level": false,
   "aviation": false,
   "pvo": false,
   "lat": 53.8089319,
   "lon": 34.8495235
  },
  "бердянск|запорожская область": {
   "name": "Бердянск",
   "region": "Запорожская область",
   "bpla": true,
   "bplaDim": false,
   "uab": false,
   "uabDim": false,
   "fpv": false,
   "rocket": false,
   "rocket_level": false,
   "aviation": false,
   "pvo": false,
   "lat": 46.75578,
   "lon": 36.78815
  },
  "ейск|краснодарский край": {
   "name": "Ейск",
   "region": "Краснодарский край",
   "bpla": true,
   "bplaDim": true,
   "uab": false,
   "uabDim": false,
   "fpv": false,
   "rocket": false,
   "rocket_level": false,
   "aviation": false,
   "pvo": false,
   "lat": 46.69263,
   "lon": 38.27907
  },
  "суземка|брянская область": {
   "name": "Суземка",
   "region": "Брянская область",
   "bpla": true,
   "bplaDim": true,
   "uab": false,
   "uabDim": false,
   "fpv": false,
   "rocket": false,
   "rocket_level": false,
   "aviation": false,
   "pvo": false,
   "lat": 52.31834,
   "lon": 34.07899
  },
  "усманский район|липецкая область": {
   "name": "Усманский район",
   "region": "Липецкая область",
   "bpla": true,
   "bplaDim": false,
   "uab": false,
   "uabDim": false,
   "fpv": false,
   "rocket": false,
   "rocket_level": false,
   "aviation": false,
   "pvo": false,
   "lat": 52.3424253,
   "lon": 39.700588
  },
  "симферополь|автономная республика крым": {
   "name": "Симферополь",
   "region": "Автономная Республика Крым",
   "bpla": true,
   "bplaDim": false,
   "uab": false,
   "uabDim": false,
   "fpv": false,
   "rocket": false,
   "rocket_level": false,
   "aviation": false,
   "pvo": false,
   "lat": 44.95719,
   "lon": 34.11079
  },
  "волноваха|донецкая народная республика": {
   "name": "Волноваха",
   "region": "Донецкая Народная Республика",
   "bpla": true,
   "bplaDim": true,
   "uab": false,
   "uabDim": false,
   "fpv": false,
   "rocket": false,
   "rocket_level": false,
   "aviation": false,
   "pvo": false,
   "lat": 47.6008,
   "lon": 37.49358
  },
  "бахчисарай|автономная республика крым": {
   "name": "Бахчисарай",
   "region": "Автономная Республика Крым",
   "bpla": true,
   "bplaDim": true,
   "uab": false,
   "uabDim": false,
   "fpv": false,
   "rocket": false,
   "rocket_level": false,
   "aviation": false,
   "pvo": false,
   "lat": 44.754571,
   "lon": 33.854009
  },
  "углегорск|донецкая народная республика": {
   "name": "Углегорск",
   "region": "Донецкая Народная Республика",
   "bpla": true,
   "bplaDim": true,
   "uab": false,
   "uabDim": false,
   "fpv": false,
   "rocket": false,
   "rocket_level": false,
   "aviation": false,
   "pvo": false,
   "lat": 48.31488,
   "lon": 38.27179
  },
  "дятьково|брянская область": {
   "name": "Дятьково",
   "region": "Брянская область",
   "bpla": true,
   "bplaDim": true,
   "uab": false,
   "uabDim": false,
   "fpv": false,
   "rocket": false,
   "rocket_level": false,
   "aviation": false,
   "pvo": false,
   "lat": 53.59782,
   "lon": 34.33825
  },
  "чертковский район|ростовская область": {
   "name": "Чертковский район",
   "region": "Ростовская область",
   "bpla": true,
   "bplaDim": false,
   "uab": false,
   "uabDim": false,
   "fpv": false,
   "rocket": false,
   "rocket_level": false,
   "aviation": false,
   "pvo": false,
   "lat": 49.4049606,
   "lon": 40.6115668
  },
  "юго-запад|московская область": {
   "name": "Юго-запад",
   "region": "Московская область",
   "bpla": true,
   "bplaDim": true,
   "uab": false,
   "uabDim": false,
   "fpv": false,
   "rocket": false,
   "rocket_level": false,
   "aviation": false,
   "pvo": false,
   "lat": 55.7696345,
   "lon": 38.4257827
  },
  "новороссийск|краснодарский край": {
   "name": "Новороссийск",
   "region": "Краснодарский край",
   "bpla": true,
   "bplaDim": true,
   "uab": false,
   "uabDim": false,
   "fpv": false,
   "rocket": false,
   "rocket_level": false,
   "aviation": false,
   "pvo": false,
   "lat": 44.73188,
   "lon": 37.76176
  },
  "новофёдоровка|автономная республика крым": {
   "name": "Новофёдоровка",
   "region": "Автономная Республика Крым",
   "bpla": true,
   "bplaDim": true,
   "uab": false,
   "uabDim": false,
   "fpv": false,
   "rocket": false,
   "rocket_level": false,
   "aviation": false,
   "pvo": false,
   "lat": 45.09473,
   "lon": 33.57211
  },
  "кучугуры|краснодарский край": {
   "name": "Кучугуры",
   "region": "Краснодарский край",
   "bpla": true,
   "bplaDim": true,
   "uab": false,
   "uabDim": false,
   "fpv": false,
   "rocket": false,
   "rocket_level": false,
   "aviation": false,
   "pvo": false,
   "lat": 45.4084502,
   "lon": 36.9533724
  },
  "миллеровский район|ростовская область": {
   "name": "Миллеровский район",
   "region": "Ростовская область",
   "bpla": true,
   "bplaDim": false,
   "uab": false,
   "uabDim": false,
   "fpv": false,
   "rocket": false,
   "rocket_level": false,
   "aviation": false,
   "pvo": false,
   "lat": 49.0249872,
   "lon": 40.2651861
  },
  "белевский район|тульская область": {
   "name": "Белевский район",
   "region": "Тульская область",
   "bpla": true,
   "bplaDim": false,
   "uab": false,
   "uabDim": false,
   "fpv": false,
   "rocket": false,
   "rocket_level": false,
   "aviation": false,
   "pvo": false,
   "lat": 53.761018,
   "lon": 36.1633658
  },
  "афипский|краснодарский край": {
   "name": "Афипский",
   "region": "Краснодарский край",
   "bpla": true,
   "bplaDim": true,
   "uab": false,
   "uabDim": false,
   "fpv": false,
   "rocket": false,
   "rocket_level": false,
   "aviation": false,
   "pvo": false,
   "lat": 44.9040435,
   "lon": 38.8426821
  },
  "железногорск|курская область": {
   "name": "Железногорск",
   "region": "Курская область",
   "bpla": true,
   "bplaDim": true,
   "uab": false,
   "uabDim": false,
   "fpv": false,
   "rocket": false,
   "rocket_level": false,
   "aviation": false,
   "pvo": false,
   "lat": 52.34198,
   "lon": 35.35917
  },
  "суровикино|волгоградская область": {
   "name": "Суровикино",
   "region": "Волгоградская область",
   "bpla": true,
   "bplaDim": false,
   "uab": false,
   "uabDim": false,
   "fpv": false,
   "rocket": false,
   "rocket_level": false,
   "aviation": false,
   "pvo": false,
   "lat": 48.60974,
   "lon": 42.8569
  },
  "славянск-на-кубани|краснодарский край": {
   "name": "Славянск-на-Кубани",
   "region": "Краснодарский край",
   "bpla": true,
   "bplaDim": false,
   "uab": false,
   "uabDim": false,
   "fpv": false,
   "rocket": false,
   "rocket_level": false,
   "aviation": false,
   "pvo": false,
   "lat": 45.25145,
   "lon": 38.12129
  },
  "мариновка|волгоградская область": {
   "name": "Мариновка",
   "region": "Волгоградская область",
   "bpla": true,
   "bplaDim": true,
   "uab": false,
   "uabDim": false,
   "fpv": false,
   "rocket": false,
   "rocket_level": false,
   "aviation": false,
   "pvo": false,
   "lat": 48.692368,
   "lon": 43.832142
  },
  "одоевский район|тульская область": {
   "name": "Одоевский район",
   "region": "Тульская область",
   "bpla": true,
   "bplaDim": false,
   "uab": false,
   "uabDim": false,
   "fpv": false,
   "rocket": false,
   "rocket_level": false,
   "aviation": false,
   "pvo": false,
   "lat": 53.9435034,
   "lon": 36.7278674
  },
  "инкерман|севастополь": {
   "name": "Инкерман",
   "region": "Севастополь",
   "bpla": true,
   "bplaDim": false,
   "uab": false,
   "uabDim": false,
   "fpv": false,
   "rocket": false,
   "rocket_level": false,
   "aviation": false,
   "pvo": false,
   "lat": 44.61391,
   "lon": 33.6098
  },
  "лискинский район|воронежская область": {
   "name": "Лискинский район",
   "region": "Воронежская область",
   "bpla": true,
   "bplaDim": true,
   "uab": false,
   "uabDim": false,
   "fpv": false,
   "rocket": false,
   "rocket_level": false,
   "aviation": false,
   "pvo": false,
   "lat": 51.0241236,
   "lon": 39.5840497
  },
  "старобельск|луганская народная республика": {
   "name": "Старобельск",
   "region": "Луганская Народная Республика",
   "bpla": true,
   "bplaDim": false,
   "uab": false,
   "uabDim": false,
   "fpv": false,
   "rocket": false,
   "rocket_level": false,
   "aviation": false,
   "pvo": false,
   "lat": 49.282243,
   "lon": 38.897393
  },
  "мангуш|донецкая народная республика": {
   "name": "Мангуш",
   "region": "Донецкая Народная Республика",
   "bpla": true,
   "bplaDim": true,
   "uab": false,
   "uabDim": false,
   "fpv": false,
   "rocket": false,
   "rocket_level": false,
   "aviation": false,
   "pvo": false,
   "lat": 47.05625,
   "lon": 37.31193
  },
  "докучаевск|донецкая народная республика": {
   "name": "Докучаевск",
   "region": "Донецкая Народная Республика",
   "bpla": true,
   "bplaDim": true,
   "uab": false,
   "uabDim": false,
   "fpv": false,
   "rocket": false,
   "rocket_level": false,
   "aviation": false,
   "pvo": false,
   "lat": 47.7522,
   "lon": 37.67761
  },
  "новоазовск|донецкая народная республика": {
   "name": "Новоазовск",
   "region": "Донецкая Народная Республика",
   "bpla": true,
   "bplaDim": true,
   "uab": false,
   "uabDim": false,
   "fpv": false,
   "rocket": false,
   "rocket_level": false,
   "aviation": false,
   "pvo": false,
   "lat": 47.11389,
   "lon": 38.08599
  },
  "котово|волгоградская область": {
   "name": "Котово",
   "region": "Волгоградская область",
   "bpla": true,
   "bplaDim": false,
   "uab": false,
   "uabDim": false,
   "fpv": false,
   "rocket": false,
   "rocket_level": false,
   "aviation": false,
   "pvo": false,
   "lat": 50.31567,
   "lon": 44.81002
  },
  "саки|автономная республика крым": {
   "name": "Саки",
   "region": "Автономная Республика Крым",
   "bpla": true,
   "bplaDim": true,
   "uab": false,
   "uabDim": false,
   "fpv": false,
   "rocket": false,
   "rocket_level": false,
   "aviation": false,
   "pvo": false,
   "lat": 45.13293,
   "lon": 33.605237
  },
  "острогожский район|воронежская область": {
   "name": "Острогожский район",
   "region": "Воронежская область",
   "bpla": true,
   "bplaDim": false,
   "uab": false,
   "uabDim": false,
   "fpv": false,
   "rocket": false,
   "rocket_level": false,
   "aviation": false,
   "pvo": false,
   "lat": 50.9400653,
   "lon": 39.0600032
  },
  "воронеж|воронежская область": {
   "name": "Воронеж",
   "region": "Воронежская область",
   "bpla": true,
   "bplaDim": true,
   "uab": false,
   "uabDim": false,
   "fpv": false,
   "rocket": false,
   "rocket_level": false,
   "aviation": false,
   "pvo": false,
   "lat": 51.66833,
   "lon": 39.19204
  },
  "кировский район|калужская область": {
   "name": "Кировский район",
   "region": "Калужская область",
   "bpla": true,
   "bplaDim": false,
   "uab": false,
   "uabDim": false,
   "fpv": false,
   "rocket": false,
   "rocket_level": false,
   "aviation": false,
   "pvo": false,
   "lat": 54.0704632,
   "lon": 34.2990692
  },
  "калужская область|брянская область": {
   "name": "Калужская область",
   "region": "Брянская область",
   "bpla": true,
   "bplaDim": true,
   "uab": false,
   "uabDim": false,
   "fpv": false,
   "rocket": false,
   "rocket_level": false,
   "aviation": false,
   "pvo": false,
   "lat": 53.3089062,
   "lon": 34.2752978
  },
  "болховский район|орловская область": {
   "name": "Болховский район",
   "region": "Орловская область",
   "bpla": true,
   "bplaDim": false,
   "uab": false,
   "uabDim": false,
   "fpv": false,
   "rocket": false,
   "rocket_level": false,
   "aviation": false,
   "pvo": false,
   "lat": 53.4361073,
   "lon": 35.9880329
  },
  "рубежное|луганская народная республика": {
   "name": "Рубежное",
   "region": "Луганская Народная Республика",
   "bpla": true,
   "bplaDim": false,
   "uab": false,
   "uabDim": false,
   "fpv": false,
   "rocket": false,
   "rocket_level": false,
   "aviation": false,
   "pvo": false,
   "lat": 49.00606,
   "lon": 38.38119
  },
  "республика крым|автономная республика крым": {
   "name": "Республика Крым",
   "region": "Автономная Республика Крым",
   "bpla": true,
   "bplaDim": false,
   "uab": false,
   "uabDim": false,
   "fpv": false,
   "rocket": false,
   "rocket_level": false,
   "aviation": false,
   "pvo": false,
   "lat": 44.948237,
   "lon": 34.100318
  },
  "севастополь|севастополь": {
   "name": "Севастополь",
   "region": "Севастополь",
   "bpla": true,
   "bplaDim": false,
   "uab": false,
   "uabDim": false,
   "fpv": false,
   "rocket": false,
   "rocket_level": false,
   "aviation": false,
   "pvo": false,
   "lat": 44.60795,
   "lon": 33.52134
  },
  "белевский|тульская область": {
   "name": "Белевский",
   "region": "Тульская область",
   "bpla": true,
   "bplaDim": false,
   "uab": false,
   "uabDim": false,
   "fpv": false,
   "rocket": false,
   "rocket_level": false,
   "aviation": false,
   "pvo": false,
   "lat": 53.761018,
   "lon": 36.1633658
  },
  "каменск-шахтинский|ростовская область": {
   "name": "Каменск-Шахтинский",
   "region": "Ростовская область",
   "bpla": true,
   "bplaDim": true,
   "uab": false,
   "uabDim": false,
   "fpv": false,
   "rocket": false,
   "rocket_level": false,
   "aviation": false,
   "pvo": false,
   "lat": 48.31779,
   "lon": 40.25948
  },
  "мариуполь|донецкая народная республика": {
   "name": "Мариуполь",
   "region": "Донецкая Народная Республика",
   "bpla": true,
   "bplaDim": false,
   "uab": false,
   "uabDim": false,
   "fpv": false,
   "rocket": false,
   "rocket_level": false,
   "aviation": false,
   "pvo": false,
   "lat": 47.09514,
   "lon": 37.54131
  },
  "морозовск|ростовская область": {
   "name": "Морозовск",
   "region": "Ростовская область",
   "bpla": true,
   "bplaDim": false,
   "uab": false,
   "uabDim": false,
   "fpv": false,
   "rocket": false,
   "rocket_level": false,
   "aviation": false,
   "pvo": false,
   "lat": 48.35103,
   "lon": 41.829
  },
  "мещовский район|калужская область": {
   "name": "Мещовский район",
   "region": "Калужская область",
   "bpla": true,
   "bplaDim": false,
   "uab": false,
   "uabDim": false,
   "fpv": false,
   "rocket": false,
   "rocket_level": false,
   "aviation": false,
   "pvo": false,
   "lat": 54.2140782,
   "lon": 35.3921451
  },
  "сосковский район|орловская область": {
   "name": "Сосковский район",
   "region": "Орловская область",
   "bpla": true,
   "bplaDim": false,
   "uab": false,
   "uabDim": false,
   "fpv": false,
   "rocket": false,
   "rocket_level": false,
   "aviation": false,
   "pvo": false,
   "lat": 52.742656,
   "lon": 35.3808815
  },
  "сватово|луганская народная республика": {
   "name": "Сватово",
   "region": "Луганская Народная Республика",
   "bpla": true,
   "bplaDim": true,
   "uab": false,
   "uabDim": false,
   "fpv": false,
   "rocket": false,
   "rocket_level": false,
   "aviation": false,
   "pvo": false,
   "lat": 49.40719,
   "lon": 38.15362
  },
  "крымский район|краснодарский край": {
   "name": "Крымский район",
   "region": "Краснодарский край",
   "bpla": true,
   "bplaDim": false,
   "uab": false,
   "uabDim": false,
   "fpv": false,
   "rocket": false,
   "rocket_level": false,
   "aviation": false,
   "pvo": false,
   "lat": 44.9624541,
   "lon": 37.896802
  },
  "мценский район|орловская область": {
   "name": "Мценский район",
   "region": "Орловская область",
   "bpla": true,
   "bplaDim": false,
   "uab": false,
   "uabDim": false,
   "fpv": false,
   "rocket": false,
   "rocket_level": false,
   "aviation": false,
   "pvo": false,
   "lat": 53.2451748,
   "lon": 36.5945584
  },
  "людиновский район|калужская область": {
   "name": "Людиновский район",
   "region": "Калужская область",
   "bpla": true,
   "bplaDim": false,
   "uab": false,
   "uabDim": false,
   "fpv": false,
   "rocket": false,
   "rocket_level": false,
   "aviation": false,
   "pvo": false,
   "lat": 53.8631396,
   "lon": 34.4489448
  },
  "сизовка|автономная республика крым": {
   "name": "Сизовка",
   "region": "Автономная Республика Крым",
   "bpla": true,
   "bplaDim": true,
   "uab": false,
   "uabDim": false,
   "fpv": false,
   "rocket": false,
   "rocket_level": false,
   "aviation": false,
   "pvo": false,
   "lat": 45.348587,
   "lon": 33.878982
  },
  "верхнедонской район|ростовская область": {
   "name": "Верхнедонской район",
   "region": "Ростовская область",
   "bpla": true,
   "bplaDim": false,
   "uab": false,
   "uabDim": false,
   "fpv": false,
   "rocket": false,
   "rocket_level": false,
   "aviation": false,
   "pvo": false,
   "lat": 49.7991115,
   "lon": 41.2630916
  },
  "анапа|краснодарский край": {
   "name": "Анапа",
   "region": "Краснодарский край",
   "bpla": true,
   "bplaDim": true,
   "uab": false,
   "uabDim": false,
   "fpv": false,
   "rocket": false,
   "rocket_level": false,
   "aviation": false,
   "pvo": false,
   "lat": 44.89497,
   "lon": 37.31623
  },
  "ильич|краснодарский край": {
   "name": "Ильич",
   "region": "Краснодарский край",
   "bpla": true,
   "bplaDim": true,
   "uab": false,
   "uabDim": false,
   "fpv": false,
   "rocket": false,
   "rocket_level": false,
   "aviation": false,
   "pvo": false,
   "lat": 45.4218123,
   "lon": 36.7717397
  },
  "красноперекопск|автономная республика крым": {
   "name": "Красноперекопск",
   "region": "Автономная Республика Крым",
   "bpla": true,
   "bplaDim": true,
   "uab": false,
   "uabDim": false,
   "fpv": false,
   "rocket": false,
   "rocket_level": false,
   "aviation": false,
   "pvo": false,
   "lat": 45.95547,
   "lon": 33.79261
  },
  "уютное|автономная республика крым": {
   "name": "Уютное",
   "region": "Автономная Республика Крым",
   "bpla": true,
   "bplaDim": true,
   "uab": false,
   "uabDim": false,
   "fpv": false,
   "rocket": false,
   "rocket_level": false,
   "aviation": false,
   "pvo": false,
   "lat": 45.199235,
   "lon": 33.299703
  },
  "приазовский|краснодарский край": {
   "name": "Приазовский",
   "region": "Краснодарский край",
   "bpla": true,
   "bplaDim": true,
   "uab": false,
   "uabDim": false,
   "fpv": false,
   "rocket": false,
   "rocket_level": false,
   "aviation": false,
   "pvo": false,
   "lat": 45.4420949,
   "lon": 36.8403945
  },
  "крымск|краснодарский край": {
   "name": "Крымск",
   "region": "Краснодарский край",
   "bpla": true,
   "bplaDim": false,
   "uab": false,
   "uabDim": false,
   "fpv": false,
   "rocket": false,
   "rocket_level": false,
   "aviation": false,
   "pvo": false,
   "lat": 44.92625,
   "lon": 37.99025
  },
  "ульяновская|самарская область": {
   "name": "Ульяновская",
   "region": "Самарская область",
   "bpla": true,
   "bplaDim": true,
   "uab": false,
   "uabDim": false,
   "fpv": false,
   "rocket": false,
   "rocket_level": false,
   "aviation": false,
   "pvo": false,
   "lat": 53.1977478,
   "lon": 50.113902
  },
  "таганрог|ростовская область": {
   "name": "Таганрог",
   "region": "Ростовская область",
   "bpla": true,
   "bplaDim": true,
   "uab": false,
   "uabDim": false,
   "fpv": false,
   "rocket": false,
   "rocket_level": false,
   "aviation": false,
   "pvo": false,
   "lat": 47.23627,
   "lon": 38.9053
  },
  "ильский|краснодарский край": {
   "name": "Ильский",
   "region": "Краснодарский край",
   "bpla": true,
   "bplaDim": true,
   "uab": false,
   "uabDim": false,
   "fpv": false,
   "rocket": false,
   "rocket_level": false,
   "aviation": false,
   "pvo": false,
   "lat": 44.8458544,
   "lon": 38.5608255
  },
  "гвардейское|автономная республика крым": {
   "name": "Гвардейское",
   "region": "Автономная Республика Крым",
   "bpla": true,
   "bplaDim": true,
   "uab": false,
   "uabDim": false,
   "fpv": false,
   "rocket": false,
   "rocket_level": false,
   "aviation": false,
   "pvo": false,
   "lat": 45.11692,
   "lon": 34.02188
  },
  "саратов/энгельс|саратовская область": {
   "name": "Саратов/Энгельс",
   "region": "Саратовская область",
   "bpla": true,
   "bplaDim": true,
   "uab": false,
   "uabDim": false,
   "fpv": false,
   "rocket": false,
   "rocket_level": false,
   "aviation": false,
   "pvo": false,
   "lat": 51.5173439,
   "lon": 46.0702917
  },
  "казачья бухта|севастополь": {
   "name": "Казачья бухта",
   "region": "Севастополь",
   "bpla": true,
   "bplaDim": true,
   "uab": false,
   "uabDim": false,
   "fpv": false,
   "rocket": false,
   "rocket_level": false,
   "aviation": false,
   "pvo": false,
   "lat": 44.572058,
   "lon": 33.411822
  },
  "луганск|луганская народная республика": {
   "name": "Луганск",
   "region": "Луганская Народная Республика",
   "bpla": true,
   "bplaDim": true,
   "uab": false,
   "uabDim": false,
   "fpv": false,
   "rocket": false,
   "rocket_level": false,
   "aviation": false,
   "pvo": false,
   "lat": 48.56814,
   "lon": 39.30553
  },
  "урзуф|донецкая народная республика": {
   "name": "Урзуф",
   "region": "Донецкая Народная Республика",
   "bpla": true,
   "bplaDim": false,
   "uab": false,
   "uabDim": false,
   "fpv": false,
   "rocket": false,
   "rocket_level": false,
   "aviation": false,
   "pvo": false,
   "lat": 46.915382,
   "lon": 37.09875
  },
  "раздольное|автономная республика крым": {
   "name": "Раздольное",
   "region": "Автономная Республика Крым",
   "bpla": true,
   "bplaDim": true,
   "uab": false,
   "uabDim": false,
   "fpv": false,
   "rocket": false,
   "rocket_level": false,
   "aviation": false,
   "pvo": false,
   "lat": 45.77083,
   "lon": 33.48777
  },
  "верховский район|орловская область": {
   "name": "Верховский район",
   "region": "Орловская область",
   "bpla": true,
   "bplaDim": false,
   "uab": false,
   "uabDim": false,
   "fpv": false,
   "rocket": false,
   "rocket_level": false,
   "aviation": false,
   "pvo": false,
   "lat": 52.7164603,
   "lon": 37.2542683
  },
  "шаблыкинский район|орловская область": {
   "name": "Шаблыкинский район",
   "region": "Орловская область",
   "bpla": true,
   "bplaDim": false,
   "uab": false,
   "uabDim": false,
   "fpv": false,
   "rocket": false,
   "rocket_level": false,
   "aviation": false,
   "pvo": false,
   "lat": 52.8579891,
   "lon": 35.1025788
  },
  "северодонецк|луганская народная республика": {
   "name": "Северодонецк",
   "region": "Луганская Народная Республика",
   "bpla": true,
   "bplaDim": true,
   "uab": false,
   "uabDim": false,
   "fpv": false,
   "rocket": false,
   "rocket_level": false,
   "aviation": false,
   "pvo": false,
   "lat": 48.94628,
   "lon": 38.48624
  },
  "донецк|ростовская область": {
   "name": "Донецк",
   "region": "Ростовская область",
   "bpla": true,
   "bplaDim": false,
   "uab": false,
   "uabDim": false,
   "fpv": false,
   "rocket": false,
   "rocket_level": false,
   "aviation": false,
   "pvo": false,
   "lat": 48.3382864,
   "lon": 39.9509488
  },
  "евпатория|автономная республика крым": {
   "name": "Евпатория",
   "region": "Автономная Республика Крым",
   "bpla": true,
   "bplaDim": true,
   "uab": false,
   "uabDim": false,
   "fpv": false,
   "rocket": false,
   "rocket_level": false,
   "aviation": false,
   "pvo": false,
   "lat": 45.190635,
   "lon": 33.367643
  },
  "дмитровский район|орловская область": {
   "name": "Дмитровский район",
   "region": "Орловская область",
   "bpla": true,
   "bplaDim": false,
   "uab": false,
   "uabDim": false,
   "fpv": false,
   "rocket": false,
   "rocket_level": false,
   "aviation": false,
   "pvo": false,
   "lat": 52.5156996,
   "lon": 35.2525686
  },
  "россошанский район|воронежская область": {
   "name": "Россошанский район",
   "region": "Воронежская область",
   "bpla": true,
   "bplaDim": false,
   "uab": false,
   "uabDim": false,
   "fpv": false,
   "rocket": false,
   "rocket_level": false,
   "aviation": false,
   "pvo": false,
   "lat": 50.1186442,
   "lon": 39.6627682
  },
  "богучарский район|воронежская область": {
   "name": "Богучарский район",
   "region": "Воронежская область",
   "bpla": true,
   "bplaDim": false,
   "uab": false,
   "uabDim": false,
   "fpv": false,
   "rocket": false,
   "rocket_level": false,
   "aviation": false,
   "pvo": false,
   "lat": 49.8513416,
   "lon": 40.596704
  },
  "дебальцево|донецкая народная республика": {
   "name": "Дебальцево",
   "region": "Донецкая Народная Республика",
   "bpla": true,
   "bplaDim": true,
   "uab": false,
   "uabDim": false,
   "fpv": false,
   "rocket": false,
   "rocket_level": false,
   "aviation": false,
   "pvo": false,
   "lat": 48.33592,
   "lon": 38.40261
  },
  "фиолент|севастополь": {
   "name": "Фиолент",
   "region": "Севастополь",
   "bpla": true,
   "bplaDim": false,
   "uab": false,
   "uabDim": false,
   "fpv": false,
   "rocket": false,
   "rocket_level": false,
   "aviation": false,
   "pvo": false,
   "lat": 44.501394,
   "lon": 33.489158
  },
  "темрюк|краснодарский край": {
   "name": "Темрюк",
   "region": "Краснодарский край",
   "bpla": true,
   "bplaDim": true,
   "uab": false,
   "uabDim": false,
   "fpv": false,
   "rocket": false,
   "rocket_level": false,
   "aviation": false,
   "pvo": false,
   "lat": 45.26885,
   "lon": 37.39752
  },
  "арсеньевский район|тульская область": {
   "name": "Арсеньевский район",
   "region": "Тульская область",
   "bpla": true,
   "bplaDim": false,
   "uab": false,
   "uabDim": false,
   "fpv": false,
   "rocket": false,
   "rocket_level": false,
   "aviation": false,
   "pvo": false,
   "lat": 53.6268642,
   "lon": 36.5818743
  },
  "балашовский район|саратовская область": {
   "name": "Балашовский район",
   "region": "Саратовская область",
   "bpla": true,
   "bplaDim": false,
   "uab": false,
   "uabDim": false,
   "fpv": false,
   "rocket": false,
   "rocket_level": false,
   "aviation": false,
   "pvo": false,
   "lat": 51.4916866,
   "lon": 43.1611071
  }
 },
 "timestamp": 1783820429.525329,
 "fetched_at": "2026-07-12T01:40:29Z"
}