{
 "cities": {
  "谐芯谢褍斜懈褑泻邪褟|泻褉邪褋薪芯写邪褉褋泻懈泄 泻褉邪泄": {
   "name": "袚芯谢褍斜懈褑泻邪褟",
   "region": "袣褉邪褋薪芯写邪褉褋泻懈泄 泻褉邪泄",
   "bpla": true,
   "bplaDim": true,
   "uab": false,
   "uabDim": false,
   "fpv": false,
   "rocket": false,
   "rocket_level": false,
   "aviation": false,
   "pvo": false,
   "lat": 45.3207387,
   "lon": 37.2765537
  },
  "泻褉褘屑褋泻|泻褉邪褋薪芯写邪褉褋泻懈泄 泻褉邪泄": {
   "name": "袣褉褘屑褋泻",
   "region": "袣褉邪褋薪芯写邪褉褋泻懈泄 泻褉邪泄",
   "bpla": true,
   "bplaDim": true,
   "uab": false,
   "uabDim": false,
   "fpv": false,
   "rocket": false,
   "rocket_level": false,
   "aviation": false,
   "pvo": false,
   "lat": 44.92625,
   "lon": 37.99025
  },
  "斜械褉写褟薪褋泻|蟹邪锌芯褉芯卸褋泻邪褟 芯斜谢邪褋褌褜": {
   "name": "袘械褉写褟薪褋泻",
   "region": "袟邪锌芯褉芯卸褋泻邪褟 芯斜谢邪褋褌褜",
   "bpla": true,
   "bplaDim": true,
   "uab": false,
   "uabDim": false,
   "fpv": false,
   "rocket": false,
   "rocket_level": false,
   "aviation": false,
   "pvo": false,
   "lat": 46.75578,
   "lon": 36.78815
  },
  "薪芯胁芯褎褢写芯褉芯胁泻邪|褏械褉褋芯薪褋泻邪褟 芯斜谢邪褋褌褜": {
   "name": "袧芯胁芯褎褢写芯褉芯胁泻邪",
   "region": "啸械褉褋芯薪褋泻邪褟 芯斜谢邪褋褌褜",
   "bpla": true,
   "bplaDim": true,
   "uab": false,
   "uabDim": false,
   "fpv": false,
   "rocket": false,
   "rocket_level": false,
   "aviation": false,
   "pvo": false,
   "lat": 46.17477,
   "lon": 32.31765
  },
  "褋谢邪胁褟薪褋泻-薪邪-泻褍斜邪薪懈|泻褉邪褋薪芯写邪褉褋泻懈泄 泻褉邪泄": {
   "name": "小谢邪胁褟薪褋泻-薪邪-袣褍斜邪薪懈",
   "region": "袣褉邪褋薪芯写邪褉褋泻懈泄 泻褉邪泄",
   "bpla": true,
   "bplaDim": true,
   "uab": false,
   "uabDim": false,
   "fpv": false,
   "rocket": false,
   "rocket_level": false,
   "aviation": false,
   "pvo": false,
   "lat": 45.25145,
   "lon": 38.12129
  },
  "写械斜邪谢褜褑械胁芯|写芯薪械褑泻邪褟 薪邪褉芯写薪邪褟 褉械褋锌褍斜谢懈泻邪": {
   "name": "袛械斜邪谢褜褑械胁芯",
   "region": "袛芯薪械褑泻邪褟 袧邪褉芯写薪邪褟 袪械褋锌褍斜谢懈泻邪",
   "bpla": true,
   "bplaDim": true,
   "uab": false,
   "uabDim": false,
   "fpv": false,
   "rocket": false,
   "rocket_level": false,
   "aviation": false,
   "pvo": false,
   "lat": 48.33592,
   "lon": 38.40261
  },
  "芯 褋械褉锌褍褏芯胁|屑芯褋泻芯胁褋泻邪褟 芯斜谢邪褋褌褜": {
   "name": "袨 小械褉锌褍褏芯胁",
   "region": "袦芯褋泻芯胁褋泻邪褟 芯斜谢邪褋褌褜",
   "bpla": true,
   "bplaDim": false,
   "uab": false,
   "uabDim": false,
   "fpv": false,
   "rocket": false,
   "rocket_level": false,
   "aviation": false,
   "pvo": false,
   "lat": 54.9111787,
   "lon": 37.4241953
  },
  "芯 写褍斜薪邪|屑芯褋泻芯胁褋泻邪褟 芯斜谢邪褋褌褜": {
   "name": "袨 袛褍斜薪邪",
   "region": "袦芯褋泻芯胁褋泻邪褟 芯斜谢邪褋褌褜",
   "bpla": true,
   "bplaDim": true,
   "uab": false,
   "uabDim": false,
   "fpv": false,
   "rocket": false,
   "rocket_level": false,
   "aviation": false,
   "pvo": false,
   "lat": 56.7587721,
   "lon": 37.1403831
  },
  "屑邪泄泻芯锌|邪写褘谐械褟": {
   "name": "袦邪泄泻芯锌",
   "region": "袗写褘谐械褟",
   "bpla": true,
   "bplaDim": false,
   "uab": false,
   "uabDim": false,
   "fpv": false,
   "rocket": false,
   "rocket_level": false,
   "aviation": false,
   "pvo": false,
   "lat": 44.60789,
   "lon": 40.10242
  },
  "邪谢械泻褋懈薪|褌褍谢褜褋泻邪褟 芯斜谢邪褋褌褜": {
   "name": "袗谢械泻褋懈薪",
   "region": "孝褍谢褜褋泻邪褟 芯斜谢邪褋褌褜",
   "bpla": true,
   "bplaDim": false,
   "uab": false,
   "uabDim": false,
   "fpv": false,
   "rocket": false,
   "rocket_level": false,
   "aviation": false,
   "pvo": false,
   "lat": 54.50484,
   "lon": 37.06697
  },
  "蟹邪芯泻褋泻懈泄 褉邪泄芯薪|褌褍谢褜褋泻邪褟 芯斜谢邪褋褌褜": {
   "name": "袟邪芯泻褋泻懈泄 褉邪泄芯薪",
   "region": "孝褍谢褜褋泻邪褟 芯斜谢邪褋褌褜",
   "bpla": true,
   "bplaDim": false,
   "uab": false,
   "uabDim": false,
   "fpv": false,
   "rocket": false,
   "rocket_level": false,
   "aviation": false,
   "pvo": false,
   "lat": 54.6684441,
   "lon": 37.4726552
  },
  "褋泻邪写芯胁褋泻|褏械褉褋芯薪褋泻邪褟 芯斜谢邪褋褌褜": {
   "name": "小泻邪写芯胁褋泻",
   "region": "啸械褉褋芯薪褋泻邪褟 芯斜谢邪褋褌褜",
   "bpla": true,
   "bplaDim": true,
   "uab": false,
   "uabDim": false,
   "fpv": false,
   "rocket": false,
   "rocket_level": false,
   "aviation": false,
   "pvo": false,
   "lat": 46.11313,
   "lon": 32.90978
  },
  "泻械褉褔褜|邪胁褌芯薪芯屑薪邪褟 褉械褋锌褍斜谢懈泻邪 泻褉褘屑": {
   "name": "袣械褉褔褜",
   "region": "袗胁褌芯薪芯屑薪邪褟 袪械褋锌褍斜谢懈泻邪 袣褉褘屑",
   "bpla": true,
   "bplaDim": false,
   "uab": false,
   "uabDim": false,
   "fpv": false,
   "rocket": false,
   "rocket_level": false,
   "aviation": false,
   "pvo": false,
   "lat": 45.35675,
   "lon": 36.47542
  },
  "斜械谢芯褉械褔械薪褋泻|泻褉邪褋薪芯写邪褉褋泻懈泄 泻褉邪泄": {
   "name": "袘械谢芯褉械褔械薪褋泻",
   "region": "袣褉邪褋薪芯写邪褉褋泻懈泄 泻褉邪泄",
   "bpla": true,
   "bplaDim": true,
   "uab": false,
   "uabDim": false,
   "fpv": false,
   "rocket": false,
   "rocket_level": false,
   "aviation": false,
   "pvo": false,
   "lat": 44.77002,
   "lon": 39.87246
  },
  "写芯薪械褑泻|写芯薪械褑泻邪褟 薪邪褉芯写薪邪褟 褉械褋锌褍斜谢懈泻邪": {
   "name": "袛芯薪械褑泻",
   "region": "袛芯薪械褑泻邪褟 袧邪褉芯写薪邪褟 袪械褋锌褍斜谢懈泻邪",
   "bpla": true,
   "bplaDim": true,
   "uab": false,
   "uabDim": false,
   "fpv": false,
   "rocket": false,
   "rocket_level": false,
   "aviation": false,
   "pvo": false,
   "lat": 48.023,
   "lon": 37.80224
  },
  "锌芯褔械锌|斜褉褟薪褋泻邪褟 芯斜谢邪褋褌褜": {
   "name": "袩芯褔械锌",
   "region": "袘褉褟薪褋泻邪褟 芯斜谢邪褋褌褜",
   "bpla": true,
   "bplaDim": true,
   "uab": false,
   "uabDim": false,
   "fpv": false,
   "rocket": false,
   "rocket_level": false,
   "aviation": false,
   "pvo": false,
   "lat": 52.9331,
   "lon": 33.44702
  },
  "褍褉蟹褍褎|写芯薪械褑泻邪褟 薪邪褉芯写薪邪褟 褉械褋锌褍斜谢懈泻邪": {
   "name": "校褉蟹褍褎",
   "region": "袛芯薪械褑泻邪褟 袧邪褉芯写薪邪褟 袪械褋锌褍斜谢懈泻邪",
   "bpla": true,
   "bplaDim": true,
   "uab": false,
   "uabDim": false,
   "fpv": false,
   "rocket": false,
   "rocket_level": false,
   "aviation": false,
   "pvo": false,
   "lat": 46.915382,
   "lon": 37.09875
  },
  "芯 泻谢懈薪|屑芯褋泻芯胁褋泻邪褟 芯斜谢邪褋褌褜": {
   "name": "袨 袣谢懈薪",
   "region": "袦芯褋泻芯胁褋泻邪褟 芯斜谢邪褋褌褜",
   "bpla": true,
   "bplaDim": false,
   "uab": false,
   "uabDim": false,
   "fpv": false,
   "rocket": false,
   "rocket_level": false,
   "aviation": false,
   "pvo": false,
   "lat": 56.318143,
   "lon": 36.744118
  },
  "褋械谢褜褑芯|斜褉褟薪褋泻邪褟 芯斜谢邪褋褌褜": {
   "name": "小械谢褜褑芯",
   "region": "袘褉褟薪褋泻邪褟 芯斜谢邪褋褌褜",
   "bpla": true,
   "bplaDim": true,
   "uab": false,
   "uabDim": false,
   "fpv": false,
   "rocket": false,
   "rocket_level": false,
   "aviation": false,
   "pvo": false,
   "lat": 53.36831,
   "lon": 34.10328
  },
  "泻褉褘屑褋泻懈泄 褉邪泄芯薪|泻褉邪褋薪芯写邪褉褋泻懈泄 泻褉邪泄": {
   "name": "袣褉褘屑褋泻懈泄 褉邪泄芯薪",
   "region": "袣褉邪褋薪芯写邪褉褋泻懈泄 泻褉邪泄",
   "bpla": true,
   "bplaDim": false,
   "uab": false,
   "uabDim": false,
   "fpv": false,
   "rocket": false,
   "rocket_level": false,
   "aviation": false,
   "pvo": false,
   "lat": 44.9624541,
   "lon": 37.896802
  },
  "芯 褋褌褍锌懈薪芯|屑芯褋泻芯胁褋泻邪褟 芯斜谢邪褋褌褜": {
   "name": "袨 小褌褍锌懈薪芯",
   "region": "袦芯褋泻芯胁褋泻邪褟 芯斜谢邪褋褌褜",
   "bpla": true,
   "bplaDim": false,
   "uab": false,
   "uabDim": false,
   "fpv": false,
   "rocket": false,
   "rocket_level": false,
   "aviation": false,
   "pvo": false,
   "lat": 54.8961714,
   "lon": 38.0740681
  },
  "胁芯谢芯泻芯谢邪屑褋泻|屑芯褋泻芯胁褋泻邪褟 芯斜谢邪褋褌褜": {
   "name": "袙芯谢芯泻芯谢邪屑褋泻",
   "region": "袦芯褋泻芯胁褋泻邪褟 芯斜谢邪褋褌褜",
   "bpla": true,
   "bplaDim": false,
   "uab": false,
   "uabDim": false,
   "fpv": false,
   "rocket": false,
   "rocket_level": false,
   "aviation": false,
   "pvo": false,
   "lat": 56.03361,
   "lon": 35.96944
  },
  "薪芯胁芯写褍谐懈薪褋泻懈泄 褉邪泄芯薪|褋屑芯谢械薪褋泻邪褟 芯斜谢邪褋褌褜": {
   "name": "袧芯胁芯写褍谐懈薪褋泻懈泄 褉邪泄芯薪",
   "region": "小屑芯谢械薪褋泻邪褟 芯斜谢邪褋褌褜",
   "bpla": true,
   "bplaDim": false,
   "uab": false,
   "uabDim": false,
   "fpv": false,
   "rocket": false,
   "rocket_level": false,
   "aviation": false,
   "pvo": false,
   "lat": 55.6167715,
   "lon": 34.1261785
  },
  "褉械褋锌褍斜谢懈泻邪 泻褉褘屑|邪胁褌芯薪芯屑薪邪褟 褉械褋锌褍斜谢懈泻邪 泻褉褘屑": {
   "name": "袪械褋锌褍斜谢懈泻邪 袣褉褘屑",
   "region": "袗胁褌芯薪芯屑薪邪褟 袪械褋锌褍斜谢懈泻邪 袣褉褘屑",
   "bpla": true,
   "bplaDim": false,
   "uab": false,
   "uabDim": false,
   "fpv": false,
   "rocket": false,
   "rocket_level": false,
   "aviation": false,
   "pvo": false,
   "lat": 44.948237,
   "lon": 34.100318
  },
  "懈谢褜褋泻懈泄|泻褉邪褋薪芯写邪褉褋泻懈泄 泻褉邪泄": {
   "name": "袠谢褜褋泻懈泄",
   "region": "袣褉邪褋薪芯写邪褉褋泻懈泄 泻褉邪泄",
   "bpla": true,
   "bplaDim": true,
   "uab": false,
   "uabDim": false,
   "fpv": false,
   "rocket": false,
   "rocket_level": false,
   "aviation": false,
   "pvo": false,
   "lat": 44.8458544,
   "lon": 38.5608255
  },
  "懈褋褌褉邪|屑芯褋泻芯胁褋泻邪褟 芯斜谢邪褋褌褜": {
   "name": "袠褋褌褉邪",
   "region": "袦芯褋泻芯胁褋泻邪褟 芯斜谢邪褋褌褜",
   "bpla": true,
   "bplaDim": false,
   "uab": false,
   "uabDim": false,
   "fpv": false,
   "rocket": false,
   "rocket_level": false,
   "aviation": false,
   "pvo": false,
   "lat": 55.91979,
   "lon": 36.86876
  },
  "胁芯褋泻褉械褋械薪褋泻|屑芯褋泻芯胁褋泻邪褟 芯斜谢邪褋褌褜": {
   "name": "袙芯褋泻褉械褋械薪褋泻",
   "region": "袦芯褋泻芯胁褋泻邪褟 芯斜谢邪褋褌褜",
   "bpla": true,
   "bplaDim": false,
   "uab": false,
   "uabDim": false,
   "fpv": false,
   "rocket": false,
   "rocket_level": false,
   "aviation": false,
   "pvo": false,
   "lat": 55.313,
   "lon": 38.691
  },
  "褌械屑褉褞泻|泻褉邪褋薪芯写邪褉褋泻懈泄 泻褉邪泄": {
   "name": "孝械屑褉褞泻",
   "region": "袣褉邪褋薪芯写邪褉褋泻懈泄 泻褉邪泄",
   "bpla": true,
   "bplaDim": true,
   "uab": false,
   "uabDim": false,
   "fpv": false,
   "rocket": false,
   "rocket_level": false,
   "aviation": false,
   "pvo": false,
   "lat": 45.26885,
   "lon": 37.39752
  },
  "邪薪邪锌邪|泻褉邪褋薪芯写邪褉褋泻懈泄 泻褉邪泄": {
   "name": "袗薪邪锌邪",
   "region": "袣褉邪褋薪芯写邪褉褋泻懈泄 泻褉邪泄",
   "bpla": true,
   "bplaDim": false,
   "uab": false,
   "uabDim": false,
   "fpv": false,
   "rocket": false,
   "rocket_level": false,
   "aviation": false,
   "pvo": false,
   "lat": 44.89497,
   "lon": 37.31623
  },
  "屑芯褋邪谢褜褋泻懈泄 褉邪泄芯薪|泻邪谢褍卸褋泻邪褟 芯斜谢邪褋褌褜": {
   "name": "袦芯褋邪谢褜褋泻懈泄 褉邪泄芯薪",
   "region": "袣邪谢褍卸褋泻邪褟 芯斜谢邪褋褌褜",
   "bpla": true,
   "bplaDim": false,
   "uab": false,
   "uabDim": false,
   "fpv": false,
   "rocket": false,
   "rocket_level": false,
   "aviation": false,
   "pvo": false,
   "lat": 54.4899427,
   "lon": 34.9785769
  },
  "锌褉懈屑芯褉褋泻芯-邪褏褌邪褉褋泻|泻褉邪褋薪芯写邪褉褋泻懈泄 泻褉邪泄": {
   "name": "袩褉懈屑芯褉褋泻芯-袗褏褌邪褉褋泻",
   "region": "袣褉邪褋薪芯写邪褉褋泻懈泄 泻褉邪泄",
   "bpla": true,
   "bplaDim": true,
   "uab": false,
   "uabDim": false,
   "fpv": false,
   "rocket": false,
   "rocket_level": false,
   "aviation": false,
   "pvo": false,
   "lat": 46.04847,
   "lon": 38.17899
  },
  "泻褉邪褋薪芯写邪褉|泻褉邪褋薪芯写邪褉褋泻懈泄 泻褉邪泄": {
   "name": "袣褉邪褋薪芯写邪褉",
   "region": "袣褉邪褋薪芯写邪褉褋泻懈泄 泻褉邪泄",
   "bpla": true,
   "bplaDim": true,
   "uab": false,
   "uabDim": false,
   "fpv": false,
   "rocket": false,
   "rocket_level": false,
   "aviation": false,
   "pvo": false,
   "lat": 45.04534,
   "lon": 38.98178
  },
  "芯 写芯屑芯写械写芯胁芯|屑芯褋泻芯胁褋泻邪褟 芯斜谢邪褋褌褜": {
   "name": "袨 袛芯屑芯写械写芯胁芯",
   "region": "袦芯褋泻芯胁褋泻邪褟 芯斜谢邪褋褌褜",
   "bpla": true,
   "bplaDim": false,
   "uab": false,
   "uabDim": false,
   "fpv": false,
   "rocket": false,
   "rocket_level": false,
   "aviation": false,
   "pvo": false,
   "lat": 55.4546771,
   "lon": 37.7647
  },
  "芯 芯写懈薪褑芯胁芯|屑芯褋泻芯胁褋泻邪褟 芯斜谢邪褋褌褜": {
   "name": "袨 袨写懈薪褑芯胁芯",
   "region": "袦芯褋泻芯胁褋泻邪褟 芯斜谢邪褋褌褜",
   "bpla": true,
   "bplaDim": false,
   "uab": false,
   "uabDim": false,
   "fpv": false,
   "rocket": false,
   "rocket_level": false,
   "aviation": false,
   "pvo": false,
   "lat": 55.6785359,
   "lon": 37.2679429
  },
  "胁械薪械胁褋泻懈泄 褉邪泄芯薪|褌褍谢褜褋泻邪褟 芯斜谢邪褋褌褜": {
   "name": "袙械薪械胁褋泻懈泄 褉邪泄芯薪",
   "region": "孝褍谢褜褋泻邪褟 芯斜谢邪褋褌褜",
   "bpla": true,
   "bplaDim": false,
   "uab": false,
   "uabDim": false,
   "fpv": false,
   "rocket": false,
   "rocket_level": false,
   "aviation": false,
   "pvo": false,
   "lat": 54.6938317,
   "lon": 38.1602108
  },
  "懈胁邪薪芯胁泻邪|斜械谢谐芯褉芯写褋泻邪褟 芯斜谢邪褋褌褜": {
   "name": "袠胁邪薪芯胁泻邪",
   "region": "袘械谢谐芯褉芯写褋泻邪褟 芯斜谢邪褋褌褜",
   "bpla": true,
   "bplaDim": false,
   "uab": false,
   "uabDim": false,
   "fpv": false,
   "rocket": false,
   "rocket_level": false,
   "aviation": false,
   "pvo": false,
   "lat": 50.939036,
   "lon": 36.6386431
  },
  "褟褋薪芯谐芯褉褋泻懈泄 褉邪泄芯薪|褌褍谢褜褋泻邪褟 芯斜谢邪褋褌褜": {
   "name": "携褋薪芯谐芯褉褋泻懈泄 褉邪泄芯薪",
   "region": "孝褍谢褜褋泻邪褟 芯斜谢邪褋褌褜",
   "bpla": true,
   "bplaDim": false,
   "uab": false,
   "uabDim": false,
   "fpv": false,
   "rocket": false,
   "rocket_level": false,
   "aviation": false,
   "pvo": false,
   "lat": 54.5814849,
   "lon": 37.9205878
  },
  "褋邪泻懈|邪胁褌芯薪芯屑薪邪褟 褉械褋锌褍斜谢懈泻邪 泻褉褘屑": {
   "name": "小邪泻懈",
   "region": "袗胁褌芯薪芯屑薪邪褟 袪械褋锌褍斜谢懈泻邪 袣褉褘屑",
   "bpla": true,
   "bplaDim": true,
   "uab": false,
   "uabDim": false,
   "fpv": false,
   "rocket": false,
   "rocket_level": false,
   "aviation": false,
   "pvo": false,
   "lat": 45.13293,
   "lon": 33.605237
  },
  "谐芯褉谢芯胁泻邪|写芯薪械褑泻邪褟 薪邪褉芯写薪邪褟 褉械褋锌褍斜谢懈泻邪": {
   "name": "袚芯褉谢芯胁泻邪",
   "region": "袛芯薪械褑泻邪褟 袧邪褉芯写薪邪褟 袪械褋锌褍斜谢懈泻邪",
   "bpla": true,
   "bplaDim": true,
   "uab": false,
   "uabDim": false,
   "fpv": false,
   "rocket": false,
   "rocket_level": false,
   "aviation": false,
   "pvo": false,
   "lat": 48.29986,
   "lon": 38.01709
  },
  "写卸邪薪泻芯泄|邪胁褌芯薪芯屑薪邪褟 褉械褋锌褍斜谢懈泻邪 泻褉褘屑": {
   "name": "袛卸邪薪泻芯泄",
   "region": "袗胁褌芯薪芯屑薪邪褟 袪械褋锌褍斜谢懈泻邪 袣褉褘屑",
   "bpla": true,
   "bplaDim": true,
   "uab": false,
   "uabDim": false,
   "fpv": false,
   "rocket": false,
   "rocket_level": false,
   "aviation": false,
   "pvo": false,
   "lat": 45.713348,
   "lon": 34.392872
  },
  "褋锌邪褋-写械屑械薪褋泻懈泄 褉邪泄芯薪|泻邪谢褍卸褋泻邪褟 芯斜谢邪褋褌褜": {
   "name": "小锌邪褋-袛械屑械薪褋泻懈泄 褉邪泄芯薪",
   "region": "袣邪谢褍卸褋泻邪褟 芯斜谢邪褋褌褜",
   "bpla": true,
   "bplaDim": false,
   "uab": false,
   "uabDim": false,
   "fpv": false,
   "rocket": false,
   "rocket_level": false,
   "aviation": false,
   "pvo": false,
   "lat": 54.4470664,
   "lon": 34.3131571
  },
  "褋谢邪胁褟薪褋泻懈泄 褉邪泄芯薪|泻褉邪褋薪芯写邪褉褋泻懈泄 泻褉邪泄": {
   "name": "小谢邪胁褟薪褋泻懈泄 褉邪泄芯薪",
   "region": "袣褉邪褋薪芯写邪褉褋泻懈泄 泻褉邪泄",
   "bpla": true,
   "bplaDim": false,
   "uab": false,
   "uabDim": false,
   "fpv": false,
   "rocket": false,
   "rocket_level": false,
   "aviation": false,
   "pvo": false,
   "lat": 45.432373,
   "lon": 37.8218601
  },
  "泻芯谢芯屑薪邪|屑芯褋泻芯胁褋泻邪褟 芯斜谢邪褋褌褜": {
   "name": "袣芯谢芯屑薪邪",
   "region": "袦芯褋泻芯胁褋泻邪褟 芯斜谢邪褋褌褜",
   "bpla": true,
   "bplaDim": false,
   "uab": false,
   "uabDim": false,
   "fpv": false,
   "rocket": false,
   "rocket_level": false,
   "aviation": false,
   "pvo": false,
   "lat": 55.0938743,
   "lon": 38.7670121
  },
  "邪芯 褌褉芯懈褑泻懈泄|屑芯褋泻胁邪": {
   "name": "袗袨 孝褉芯懈褑泻懈泄",
   "region": "袦芯褋泻胁邪",
   "bpla": true,
   "bplaDim": false,
   "uab": false,
   "uabDim": false,
   "fpv": false,
   "rocket": false,
   "rocket_level": false,
   "aviation": false,
   "pvo": false,
   "lat": 55.4825489,
   "lon": 37.3161257
  },
  "薪芯胁芯褉芯褋褋懈泄褋泻|泻褉邪褋薪芯写邪褉褋泻懈泄 泻褉邪泄": {
   "name": "袧芯胁芯褉芯褋褋懈泄褋泻",
   "region": "袣褉邪褋薪芯写邪褉褋泻懈泄 泻褉邪泄",
   "bpla": true,
   "bplaDim": true,
   "uab": false,
   "uabDim": false,
   "fpv": false,
   "rocket": false,
   "rocket_level": false,
   "aviation": false,
   "pvo": false,
   "lat": 44.73188,
   "lon": 37.76176
  },
  "谐褉邪泄胁芯褉芯薪|斜械谢谐芯褉芯写褋泻邪褟 芯斜谢邪褋褌褜": {
   "name": "袚褉邪泄胁芯褉芯薪",
   "region": "袘械谢谐芯褉芯写褋泻邪褟 芯斜谢邪褋褌褜",
   "bpla": true,
   "bplaDim": true,
   "uab": false,
   "uabDim": false,
   "fpv": false,
   "rocket": false,
   "rocket_level": false,
   "aviation": false,
   "pvo": false,
   "lat": 50.47893,
   "lon": 35.68087
  },
  "泻褍泄斜褘褕械胁褋泻懈泄 褉邪泄芯薪|泻邪谢褍卸褋泻邪褟 芯斜谢邪褋褌褜": {
   "name": "袣褍泄斜褘褕械胁褋泻懈泄 褉邪泄芯薪",
   "region": "袣邪谢褍卸褋泻邪褟 芯斜谢邪褋褌褜",
   "bpla": true,
   "bplaDim": false,
   "uab": false,
   "uabDim": false,
   "fpv": false,
   "rocket": false,
   "rocket_level": false,
   "aviation": false,
   "pvo": false,
   "lat": 54.0967366,
   "lon": 33.791086
  },
  "褌褉邪褋褋邪|斜褉褟薪褋泻邪褟 芯斜谢邪褋褌褜": {
   "name": "褌褉邪褋褋邪",
   "region": "袘褉褟薪褋泻邪褟 芯斜谢邪褋褌褜",
   "bpla": true,
   "bplaDim": true,
   "uab": false,
   "uabDim": false,
   "fpv": false,
   "rocket": false,
   "rocket_level": false,
   "aviation": false,
   "pvo": false,
   "lat": 53.395264,
   "lon": 34.3207189
  },
  "芯 锌芯写芯谢褜褋泻|屑芯褋泻芯胁褋泻邪褟 芯斜谢邪褋褌褜": {
   "name": "袨 袩芯写芯谢褜褋泻",
   "region": "袦芯褋泻芯胁褋泻邪褟 芯斜谢邪褋褌褜",
   "bpla": true,
   "bplaDim": false,
   "uab": false,
   "uabDim": false,
   "fpv": false,
   "rocket": false,
   "rocket_level": false,
   "aviation": false,
   "pvo": false,
   "lat": 55.3524887,
   "lon": 37.4439535
  },
  "邪褉屑褟薪褋泻|邪胁褌芯薪芯屑薪邪褟 褉械褋锌褍斜谢懈泻邪 泻褉褘屑": {
   "name": "袗褉屑褟薪褋泻",
   "region": "袗胁褌芯薪芯屑薪邪褟 袪械褋锌褍斜谢懈泻邪 袣褉褘屑",
   "bpla": true,
   "bplaDim": true,
   "uab": false,
   "uabDim": false,
   "fpv": false,
   "rocket": false,
   "rocket_level": false,
   "aviation": false,
   "pvo": false,
   "lat": 46.10919,
   "lon": 33.69206
  },
  "芯 斜褉芯薪薪懈褑褘|屑芯褋泻芯胁褋泻邪褟 芯斜谢邪褋褌褜": {
   "name": "袨 袘褉芯薪薪懈褑褘",
   "region": "袦芯褋泻芯胁褋泻邪褟 芯斜谢邪褋褌褜",
   "bpla": true,
   "bplaDim": false,
   "uab": false,
   "uabDim": false,
   "fpv": false,
   "rocket": false,
   "rocket_level": false,
   "aviation": false,
   "pvo": false,
   "lat": 55.4157463,
   "lon": 38.2775252
  },
  "褋械胁邪褋褌芯锌芯谢褜|褋械胁邪褋褌芯锌芯谢褜": {
   "name": "小械胁邪褋褌芯锌芯谢褜",
   "region": "小械胁邪褋褌芯锌芯谢褜",
   "bpla": true,
   "bplaDim": true,
   "uab": false,
   "uabDim": false,
   "fpv": false,
   "rocket": false,
   "rocket_level": false,
   "aviation": false,
   "pvo": false,
   "lat": 44.60795,
   "lon": 33.52134
  },
  "写褍斜褉芯胁泻邪|斜褉褟薪褋泻邪褟 芯斜谢邪褋褌褜": {
   "name": "袛褍斜褉芯胁泻邪",
   "region": "袘褉褟薪褋泻邪褟 芯斜谢邪褋褌褜",
   "bpla": true,
   "bplaDim": true,
   "uab": false,
   "uabDim": false,
   "fpv": false,
   "rocket": false,
   "rocket_level": false,
   "aviation": false,
   "pvo": false,
   "lat": 53.69245,
   "lon": 33.50532
  },
  "胁邪谢褍泄泻懈|斜械谢谐芯褉芯写褋泻邪褟 芯斜谢邪褋褌褜": {
   "name": "袙邪谢褍泄泻懈",
   "region": "袘械谢谐芯褉芯写褋泻邪褟 芯斜谢邪褋褌褜",
   "bpla": true,
   "bplaDim": true,
   "uab": false,
   "uabDim": false,
   "fpv": false,
   "rocket": false,
   "rocket_level": false,
   "aviation": false,
   "pvo": false,
   "lat": 50.19661,
   "lon": 38.11674
  },
  "泻邪谢邪薪褔邪泻|褏械褉褋芯薪褋泻邪褟 芯斜谢邪褋褌褜": {
   "name": "袣邪谢邪薪褔邪泻",
   "region": "啸械褉褋芯薪褋泻邪褟 芯斜谢邪褋褌褜",
   "bpla": true,
   "bplaDim": true,
   "uab": false,
   "uabDim": false,
   "fpv": false,
   "rocket": false,
   "rocket_level": false,
   "aviation": false,
   "pvo": false,
   "lat": 46.25495,
   "lon": 33.29061
  },
  "芯 泻邪褕懈褉邪|屑芯褋泻芯胁褋泻邪褟 芯斜谢邪褋褌褜": {
   "name": "袨 袣邪褕懈褉邪",
   "region": "袦芯褋泻芯胁褋泻邪褟 芯斜谢邪褋褌褜",
   "bpla": true,
   "bplaDim": false,
   "uab": false,
   "uabDim": false,
   "fpv": false,
   "rocket": false,
   "rocket_level": false,
   "aviation": false,
   "pvo": false,
   "lat": 54.8961715,
   "lon": 38.0740681
  },
  "胁芯谢芯泻芯薪芯胁泻邪|斜械谢谐芯褉芯写褋泻邪褟 芯斜谢邪褋褌褜": {
   "name": "袙芯谢芯泻芯薪芯胁泻邪",
   "region": "袘械谢谐芯褉芯写褋泻邪褟 芯斜谢邪褋褌褜",
   "bpla": true,
   "bplaDim": true,
   "uab": false,
   "uabDim": false,
   "fpv": false,
   "rocket": false,
   "rocket_level": false,
   "aviation": false,
   "pvo": false,
   "lat": 50.48504,
   "lon": 37.86093
  },
  "械泄褋泻|泻褉邪褋薪芯写邪褉褋泻懈泄 泻褉邪泄": {
   "name": "袝泄褋泻",
   "region": "袣褉邪褋薪芯写邪褉褋泻懈泄 泻褉邪泄",
   "bpla": true,
   "bplaDim": false,
   "uab": false,
   "uabDim": false,
   "fpv": false,
   "rocket": false,
   "rocket_level": false,
   "aviation": false,
   "pvo": false,
   "lat": 46.69263,
   "lon": 38.27907
  },
  "胁懈褌懈薪芯|邪胁褌芯薪芯屑薪邪褟 褉械褋锌褍斜谢懈泻邪 泻褉褘屑": {
   "name": "袙懈褌懈薪芯",
   "region": "袗胁褌芯薪芯屑薪邪褟 袪械褋锌褍斜谢懈泻邪 袣褉褘屑",
   "bpla": true,
   "bplaDim": true,
   "uab": false,
   "uabDim": false,
   "fpv": false,
   "rocket": false,
   "rocket_level": false,
   "aviation": false,
   "pvo": false,
   "lat": 45.208513,
   "lon": 33.153134
  },
  "泻邪褔邪|邪胁褌芯薪芯屑薪邪褟 褉械褋锌褍斜谢懈泻邪 泻褉褘屑": {
   "name": "袣邪褔邪",
   "region": "袗胁褌芯薪芯屑薪邪褟 袪械褋锌褍斜谢懈泻邪 袣褉褘屑",
   "bpla": true,
   "bplaDim": true,
   "uab": false,
   "uabDim": false,
   "fpv": false,
   "rocket": false,
   "rocket_level": false,
   "aviation": false,
   "pvo": false,
   "lat": 44.772916,
   "lon": 33.543659
  },
  "屑械谢懈褌芯锌芯谢褜|蟹邪锌芯褉芯卸褋泻邪褟 芯斜谢邪褋褌褜": {
   "name": "袦械谢懈褌芯锌芯谢褜",
   "region": "袟邪锌芯褉芯卸褋泻邪褟 芯斜谢邪褋褌褜",
   "bpla": true,
   "bplaDim": true,
   "uab": false,
   "uabDim": false,
   "fpv": false,
   "rocket": false,
   "rocket_level": false,
   "aviation": false,
   "pvo": false,
   "lat": 46.84735,
   "lon": 35.38196
  },
  "邪褎懈锌褋泻懈泄|泻褉邪褋薪芯写邪褉褋泻懈泄 泻褉邪泄": {
   "name": "袗褎懈锌褋泻懈泄",
   "region": "袣褉邪褋薪芯写邪褉褋泻懈泄 泻褉邪泄",
   "bpla": true,
   "bplaDim": true,
   "uab": false,
   "uabDim": false,
   "fpv": false,
   "rocket": false,
   "rocket_level": false,
   "aviation": false,
   "pvo": false,
   "lat": 44.9040435,
   "lon": 38.8426821
  },
  "屑邪褉懈褍锌芯谢褜|写芯薪械褑泻邪褟 薪邪褉芯写薪邪褟 褉械褋锌褍斜谢懈泻邪": {
   "name": "袦邪褉懈褍锌芯谢褜",
   "region": "袛芯薪械褑泻邪褟 袧邪褉芯写薪邪褟 袪械褋锌褍斜谢懈泻邪",
   "bpla": true,
   "bplaDim": false,
   "uab": false,
   "uabDim": false,
   "fpv": false,
   "rocket": false,
   "rocket_level": false,
   "aviation": false,
   "pvo": false,
   "lat": 47.09514,
   "lon": 37.54131
  },
  "褉芯写懈薪褋泻芯械|写芯薪械褑泻邪褟 薪邪褉芯写薪邪褟 褉械褋锌褍斜谢懈泻邪": {
   "name": "袪芯写懈薪褋泻芯械",
   "region": "袛芯薪械褑泻邪褟 袧邪褉芯写薪邪褟 袪械褋锌褍斜谢懈泻邪",
   "bpla": false,
   "bplaDim": false,
   "uab": false,
   "uabDim": false,
   "fpv": false,
   "rocket": true,
   "rocket_level": true,
   "aviation": false,
   "pvo": false,
   "lat": 48.35415,
   "lon": 37.20641
  }
 },
 "timestamp": 1783919179.472234,
 "fetched_at": "2026-07-13T05:06:19Z"
}